관광지명,관광지구분,소재지도로명주소,위도,경도,관리기관전화번호,관리기관명,공공편익시설정보,숙박시설정보,운동및오락시설정보,휴양및문화시설정보,접객시설정보,지원시설정보,주차가능수,category
아산조방원미술관,관광지,전라남도 곡성군 옥과면 미술관로 288,35.29706668,127.1224042,061-363-7278,전라남도 곡성군청 문화체육과,주차장+화장실,정보없음,정보없음,정보없음,정보없음,정보없음,12,문화
곡성생태체험관,관광지,전라남도 곡성군 옥과면 월파로 295,35.31719414,127.1699834,061-363-2999,전라남도 곡성군청 환경축산과,주차장+화장실+운동기구,정보없음,정보없음,정보없음,정보없음,정보없음,15,체험
심청효문화센터,관광지,전라남도 곡성군 오산면 오산로 254-4,35.20836622,127.1288481,061-363-4041,전라남도 곡성군청 문화체육과,주차장,정보없음,정보없음,정보없음,정보없음,정보없음,25,기타
심청골짝나라학교,관광지,전라남도 곡성군 석곡면 방주마천목길 107,35.17183675,127.2580116,061-363-4224,전라남도 곡성군청 관광과,주차장,정보없음,정보없음,정보없음,정보없음,정보없음,7,체험
심청한옥마을,관광지,전라남도 곡성군 오곡면 심청로 178,35.23063008,127.3575205,061-363-9910,전라남도 곡성군청 문화체육과,주차장+무선 인터넷+화장실,정보없음,정보없음,정보없음,정보없음,정보없음,10,전통
곡성청소년야영장,관광지,전라남도 곡성군 고달면 가정마을길 51,35.22777786,127.369723,061-362-4186,전라남도 곡성군청 인구정책과,화장실+샤워실+주차장,정보없음,정보없음,정보없음,정보없음,정보없음,300,기타
곡성기차마을전통시장,관광지,전라남도 곡성군 곡성읍 곡성로 856,35.27976851,127.2984461,061-363-9002,전라남도 곡성군청 도시경제과,주차장,정보없음,정보없음,정보없음,정보없음,정보없음,43,전통
곡성기차마을 패러글라이딩체험,관광지,,35.26672854,127.3087391,061-363-6696,전라남도 곡성군청 관광과,주차장+무선 인터넷+유아시설(놀이방)+화장실,정보없음,정보없음,정보없음,정보없음,정보없음,20,전통
섬진강 레일바이크,관광지,전라남도 곡성군 오곡면 섬진강로 1465 (가정역),35.23015492,127.3682034,061-362-7717,전라남도 곡성군청 관광과,주차장,정보없음,정보없음,정보없음,정보없음,정보없음,210,레저/스포츠
문동휴양지,관광지,,34.85648266,128.6628354,055-639-4183,경상남도 거제시청,화장실,정보없음,정보없음,정보없음,정보없음,정보없음,50,기타
바람의언덕,관광지,,34.74401583,128.6632699,055-639-4183,경상남도 거제시청,화장실,정보없음,정보없음,정보없음,정보없음,정보없음,150,기타
우제봉전망대,관광지,,34.73218035,128.6738928,055-639-4793,경상남도 거제시청,없음,정보없음,정보없음,정보없음,정보없음,정보없음,200,야경/전망대
청마기념관,관광지,경상남도 거제시 둔덕면 방하2길 6,34.854887,128.517123,055-635-8340,경상남도 거제시 거제해양관광개발공사,화장실,정보없음,정보없음,전시실,안내소,정보없음,20,문화
씨월드,관광지,경상남도 거제시 일운면 지세포해안로 15,34.835848,128.701478,055-682-0330,거제씨월드,화장실,정보없음,정보없음,전시실+돌고래체험,안내소,정보없음,30,테마파크/놀이공원
알로에테마파크,관광지,경상남도 거제시 거제면 거제남서로 3937,34.835716,128.560282,055-632-9907,알로에테마파크,화장실,정보없음,정보없음,전시실,안내소,정보없음,30,테마파크/놀이공원
노을이물드는언덕,관광지,,34.95450963,128.5194543,055-639-4183,경상남도 거제시청,화장실,정보없음,정보없음,전망대,정보없음,정보없음,10,기타
가조수협효시공원,관광지,경상남도 거제시 사등면 가조서로 7,34.929516,128.525144,055-639-8341,경상남도 거제시 거제해양관광개발공사,화장실,정보없음,정보없음,전시실,안내소,정보없음,20,산책/휴식
담양호국민관광지,관광지,,35.4019831,126.9990829,061-380-2793,전라남도 담양군 관광과(담양호권관광지관리팀),관리사무소+공중화장실+전망대+정수장+주차장+도로,국민숙사(해피랜드호텔)+펜션(오쑈),운동시설지구,조경 및 휴게시설+용마루길+추월산 등산로,목포맛집+수정횟집+초원의집,가마골생태공원+JK통나무펜션단지(비호재지구),500,기타
부석사관광지,관광지,경상북도 영주시 부석면 부석사로 298,36.99435088,128.6797054,054-639-6617,경상북도 영주시청,관광안내소+광장+화장실+보행자도로 등,정보없음,정보없음,피크닉마당+부석사 이야기길+의상대사 스토리원 등,상가 등,정보없음,540,기타
"목포근대역사관 1관 (구, 일본영사관)",관광지,전라남도 목포시 영산로 29번길 6,34.78769578,126.3817942,061-242-0340,전라남도 목포시청,화장실,정보없음,방공호체험+XR체험존,박물관,정보없음,정보없음,0,철도/교통 체험
"목포근대역사관 2관 (구,동양척식주식회사)",관광지,전라남도 목포시 번화로 18,34.78596374,126.3814912,061-270-8728,전라남도 목포시청,화장실+주차장+여행자쉼터,정보없음,정보없음,박물관,정보없음,정보없음,30,철도/교통 체험
성옥기념관,관광지,전라남도 목포시 영산로 11,34.78698576,126.3798645,061-244-2527,전라남도 목포시청,화장실+주차장+라운지,정보없음,정보없음,정보없음,정보없음,정보없음,10,문화
구 동본원사 목포별원,관광지,전라남도 목포시 영산로 75번길 5,34.78970032,126.3842863,061-245-8832,전라남도 목포시청,주차장,정보없음,정보없음,정보없음,정보없음,정보없음,45,기타
유달산,관광지,전라남도 목포시 유달로 180,34.79142993,126.3759183,061-270-8359,전라남도 목포시청,화장실+주차장+관광안내소,정보없음,정보없음,특정자생식물원+봉후샘쉼터+옛수원지 암벽폭포+조각공원,매점,정보없음,2000,자연
요트올림픽동산지구,관광지,부산광역시 해운대구 APEC로 30,35.16578256,129.1350266,051-749-4081,부산광역시 해운대구청,관리사무소 1동+공중화장실 3동+도로포장+원형분수 1개소+연못 1개소+파고라 1동+기념동산 1개소+녹지 1개소,정보없음,놀이광장 1개소+잔디광장 1개소+산책로  1개소+놀이마당 1개소+어린이놀이터 1개소+수영장 1동,식물원 1개소+야외전시장,정보없음,정보없음,398,자연
동백섬,관광지,부산광역시 해운대구 동백로 116,35.15234205,129.1513619,051-749-4081,부산광역시 해운대구청,공중화장실 2동+도로+전망대 1개소+수목+잔디 1개소,관광호텔 1동,정보없음,관광유람선 1개소,정보없음,정보없음,101,기타
몰운대,관광지,부산광역시 사하구 몰운대1길 14(다대동),35.04638172,128.9680068,051-220-4082,부산광역시 사하구,화장실,정보없음,정보없음,다대포객사,정보없음,정보없음,150,기타
다대포 꿈의 낙조분수,관광지,부산광역시 사하구 몰운대1길 14(다대동),35.04638172,128.9680068,051-220-5891,부산광역시 사하구,화장실,정보없음,정보없음,물놀이 체험분수+야간 음악분수 운영,정보없음,정보없음,500,기타
다대포해수욕장,관광지,부산광역시 사하구 몰운대1길 14(다대동),35.04638172,128.9680068,051-220-4161,부산광역시 사하구,화장실,정보없음,갯벌체험+패들보드+서핑보드 (※ 해양스포츠 체험 가능),부산바다축제 등 다양한 문화공연 등,정보없음,정보없음,1500,계절별 명소
낙동강하구아미산전망대,관광지,부산광역시 사하구 다대낙조2길 77(다대동),35.05276243,128.9607468,051-265-6863,낙동강하구 에코센터,화장실,정보없음,정보없음,정보없음,정보없음,정보없음,100,자연
을숙도 생태공원,관광지,부산광역시 사하구 낙동남로1233번길 25(하단동),35.11008837,128.9449571,051-209-2000,낙동강하구 에코센터,화장실,정보없음,정보없음,정보없음,정보없음,정보없음,600,자연
을숙도 철새공원,관광지,부산광역시 사하구 낙동남로 1240(하단동),35.10449092,128.9459791,051-209-2000,낙동강하구 에코센터,화장실,정보없음,정보없음,생태체험프로그램 운영,정보없음,정보없음,300,산책/휴식
감천문화마을,관광지,부산광역시 사하구 감내2로 203(감천동),35.09748815,129.0106077,051-220-5922,부산광역시 사하구,화장실,방가방가게스트하우스 등,정보없음,도자기+목공예 (※ 각종 체험프로그램 운영),감천문화마을 안내센터,정보없음,200,전통
장림포구,관광지,부산광역시 사하구 장림로 93번길 72(장림동),35.07915955,128.9513486,051-220-4502,부산광역시 사하구,화장실,정보없음,놀이촌,문화촌,맛술촌,해양보호구역 홍보관,100,기타
쌍암공원,관광지,광주광역시 광산구 첨단중앙로182번길 39,35.22222807,126.8442514,062-960-8702,광주광역시 광산구청,주차장(2)+화장실(3),정보없음,정보없음,정보없음,정보없음,정보없음,194,산책/휴식
수완호수공원,관광지,광주광역시 광산구 장신로82번길 57,35.18794733,126.8202489,062-960-8677,광주광역시 광산구청,화장실(2),정보없음,정보없음,정보없음,정보없음,정보없음,0,산책/휴식
송정작은미술관,관광지,광주광역시 광산구 송정로30번길 25,35.13510527,126.7933629,062-960-3688,광주광역시 광산구청,화장실,정보없음,정보없음,정보없음,정보없음,정보없음,3,문화
소촌아트팩토리,관광지,광주광역시 광산구 소촌로85번길 14-9,35.15262857,126.7912355,062-960-3688,광주광역시 광산구청,화장실+주차장,정보없음,정보없음,정보없음,정보없음,정보없음,23,기타
별밤미술관 in 첨단,관광지,광주광역시 광산구 첨단중앙로182번길 39,35.22222807,126.8442514,062-960-3689,광주광역시 광산구청,없음,정보없음,정보없음,정보없음,정보없음,정보없음,0,문화
별밤미술관 in 수완,관광지,광주광역시 광산구 풍영정천자전거길 1030,35.18597183,126.819001,062-960-3689,광주광역시 광산구청,없음,정보없음,정보없음,정보없음,정보없음,정보없음,0,문화
별밤미술관 in 운남,관광지,광주광역시 광산구 목련로 156,35.17144137,126.8159402,062-960-3689,광주광역시 광산구청,없음,정보없음,정보없음,정보없음,정보없음,정보없음,0,문화
별밤미술관 in 신창,관광지,광주광역시 광산구 왕버들로 331,35.19467258,126.8452966,062-960-3689,광주광역시 광산구청,없음,정보없음,정보없음,정보없음,정보없음,정보없음,0,문화
별밤미술관 in 선운,관광지,광주광역시 광산구 선운로2번길 40,35.14604759,126.7732908,062-960-3689,광주광역시 광산구청,없음,정보없음,정보없음,정보없음,정보없음,정보없음,0,문화
순천향매실마을,관광지,전라남도 순천시 월등면 계월길 138,35.0622232,127.4045173,061-754-2337,전라남도 순천시청 월등면,체험관 1+ 숙박동 1+ 휴게시설 1+ 화장실 1,숙박시설 1동,해당없음,해당없음,휴게시설,해당없음,42,전통
순천생태마을,관광지,전라남도 순천시 승주읍 고산도목길 9,35.06648711,127.3602718,061-755-0141,전라남도 순천시청 승주읍,화장실+ 안내소+ 생태체험관+ 주차장,생태체험관,없음,생태체험관,없음,없음,6,전통
거차뻘배체험마을,관광지,전라남도 순천시 별량면 거차길 130,34.8375993,127.4474457,061-742-8837,전라남도 순천시청 별량면,화장실+ 샤워장+ 뻘배체험장,민박3개,정보없음,캠핑장,정보없음,매점,50,전통
낙안민속자연휴양림,관광지,전라남도 순천시 낙안면 민속마을길 1600,34.91226789,127.3523884,061-754-4400,전라남도 순천시청 낙안면,화장실+ 취사장+ 샤워장+ 민속놀이체험장+ 숲체험교실,객실 15개+ 야영장 17개,정보없음,정보없음,정보없음,정보없음,50,자연
대성관광지,관광지,경기도 가평군 청평면 대성강변길 14,37.681431,127.379521,031-580-2518,경기도 가평군청 관광과,공중화장실(2동)+운영(1동),4동 운영+4동 계획,유원시설 등 계획,선착장 3개 운영+야영장 등 계획,매점+식당 등 4개소 운영+상가 5개소 계획,없음,25,기타
산장관광지,관광지,경기도 가평군 상면 덕현산장길 71 산장관광지,37.754183,127.410629,031-580-2518,경기도 가평군청 관광과,도로+주차장+관리사무소+홍수위관리소,가족호텔 1개소+펜션하우스 3개소 운영+콘도미니엄 2개소 계획,다목적운동장 계획중,야영장 및 야영공연장 등 운영,음식점 및 상가 2동 운영+3동 계획,없음,156,자연
무극전적국민관광지,관광지,충청북도 음성군 음성읍 생음대로 594,36.95063812,127.6470132,043-871-3114,충청북도 음성군청,감우재전승기념관+화장실+주차장,정보없음,정보없음,정보없음,정보없음,정보없음,15,기타
금강하구둑관광지,관광지,충청남도 서천군 마서면 장산로 855번길 56-2,36.01993599,126.736726,041-950-4018,충청남도 서천군청,종합안내소+주차장+화장실,정보없음,정보없음,정보없음,정보없음,정보없음,486,기타
통영루지,관광지,경상남도 통영시 발개로 178,34.82440908,128.4241617,055-650-0621,경상남도 통영시청,화장실,정보없음,정보없음,정보없음,정보없음,정보없음,350,기타
포로수용소유적공원,관광지,경상남도 거제시 계룡로 61,34.87637998,128.625371,055-639-0625,경상남도 거제시 거제해양관광개발공사,화장실,정보없음,아바타포,전시실,안내소,정보없음,100,역사
거제해금강,관광지,,34.73266258,128.683858,055-639-3404,경상남도 거제시청,없음,정보없음,정보없음,정보없음,정보없음,정보없음,0,기타
외도,관광지,경상남도 거제시 일운면 외도길 17,34.76947226,128.7113921,055-681-4541,경상남도 거제시청,화장실,정보없음,정보없음,전시실,안내소,정보없음,0,기타
공곶이,관광지,,34.79451496,128.713906,055-639-4183,경상남도 거제시청,없음,정보없음,정보없음,정보없음,정보없음,정보없음,50,기타
김영삼전대통령생가기록전시관,관광지,경상남도 거제시 장목면 옥포대첩로 743,34.931413,128.715439,055-639-8290,경상남도 거제시 거제해양관광개발공사,화장실,정보없음,정보없음,정보없음,안내소,정보없음,15,역사
웰리힐리파크 관광단지,관광단지,강원특별자치도 횡성군 둔내면 고원로 451,37.49012611,128.2501389,1544-8833,신안종합리조트,스키장+콘도+골프장,콘도,유원시설+공연장,정보없음,정보없음,정보없음,500,테마파크/놀이공원
사계고택,관광지,충청남도 계룡시 두마면 사계로 122-4,36.265691,127.2719783,042-840-2412,충청남도 계룡시,관리사무소+화장실(1동)+주차장,정보없음,정보없음,정보없음,정보없음,정보없음,10,역사
모원재,관광지,충청남도 계룡시 두마면 왕대2길6-10,36.254886,127.2732753,042-840-2412,충청남도 계룡시,화장실(1동)+주차장,정보없음,정보없음,정보없음,정보없음,정보없음,35,기타
염선재,관광지,충청남도 계룡시 사계로 5-16(금암동),36.2693923,127.261851,042-840-2412,충청남도 계룡시,주차장,정보없음,정보없음,정보없음,정보없음,정보없음,2,기타
이심원충신정려현판,관광지,충청남도 계룡시 금암1 길 7(금암동),36.280034,127.2470773,042-840-2412,충청남도 계룡시,주차장,정보없음,정보없음,정보없음,정보없음,정보없음,2,기타
신원재,관광지,충청남도 계룡시 두마면 왕대2길43,36.255245,127.2705257,042-840-2412,충청남도 계룡시,주차장,정보없음,정보없음,정보없음,정보없음,정보없음,5,기타
미당서정주의 집,관광지,서울특별시 관악구 남부순환로 256 나길 4,37.4734032,126.973367,02-879-5605,서울특별시 관악구청,화장실,정보없음,정보없음,정보없음,정보없음,정보없음,0,기타
강감찬전시관,관광지,서울특별시 관악구 낙성대로 77 낙성대공원내,37.47197208,126.959371,02-879-5605,서울특별시 관악구청,없음(공원화장실 이용),정보없음,정보없음,정보없음,정보없음,정보없음,0,기타
무이예술관,관광지,강원특별자치도 평창군 봉평면 사리평길 233,37.61527594,128.348787,033-330-2742,강원특별자치도 평창군청,화장실,정보없음,문화예술체험장,조각공원(야외전시장)+예술전시장(실내),정보없음,정보없음,5,문화
백룡동굴,관광지,강원특별자치도 평창군 미탄면 문희길 63,37.27786356,128.577051,033-330-2742,강원특별자치도 평창군청,화장실+세면장,정보없음,정보없음,정보없음,정보없음,정보없음,40,자연
이효석문화예술촌,관광지,강원특별자치도 평창군 봉평면 효석문학길 73-25,37.61317426,128.3701239,033-330-2742,강원특별자치도 평창군청,화장실,정보없음,정보없음,이효석문학관(기념관+자료 전시실)+효석달빛언덕+이효석생가 복원동+문학의 숲(야외),카페+야외쉼터,정보없음,250,문화
평창돌문화체험관,관광지,강원특별자치도 평창군 평창읍 바위공원길 111,37.376584,128.409516,033-330-2742,강원특별자치도 평창군청,주차장+화장실,정보없음,전시관,바위공원(야외전시장)+수석 전시관(실내),카페,정보없음,15,체험
마하생태관광지,관광지,강원특별자치도 평창군 미탄면 마하길 42-5,37.29236873,128.5412837,033-330-2742,강원특별자치도 평창군청,주차장,생태체험민박,정보없음,생태주택관+명상의정원+여울광장+자연학습장+담소원+산속학습장+광장6야영장,휴게음식점,정보없음,199,자연
용평관광단지,관광단지,강원특별자치도 평창군 대관령면 올림픽로 715,37.65094444,128.7055569,033-330-2742,강원특별자치도 평창군청,주차장+화장실,콘도+호텔,스키장+골프장,정보없음,상가+음식점+카페 등,정보없음,2837,기타
알펜시아관광단지,관광단지,강원특별자치도 평창군 대관령면 솔봉로 325,37.65925417,128.6840107,033-330-2742,강원특별자치도 평창군청,주차장+화장실,콘도+호텔,스키장+골프장,"생태학습원+뮤직텐트,콘서트홀+강원학생체육훈련장+채플+아름드리원+늘푸른원+야생화원+숲마루원",상가+명품아울렛+초콜릿전시관,정보없음,2800,기타
휘닉스파크관광단지,관광단지,강원특별자치도 평창군 봉평면 태기로 174,37.57587246,128.3160325,033-330-2742,강원특별자치도 평창군청,주차장+화장실,콘도+호텔,스키장+골프장,유스호스텔+극장+워터파크+컨벤션센터,상가(센타프라자),정보없음,2800,테마파크/놀이공원
장성호관광지,관광지,전라남도 장성군 북하면 백양로 591-4,35.41373254,126.8508186,061-392-7248,전라남도 장성군청,관리사무소+화장실+주차장,임권택시네마테크캠프동,정보없음,문화예술공원+수몰문화관+야외공연장,매점,정보없음,200,기타
홍길동테마파크,관광지,전라남도 장성군 황룡면 홍길동로 431,35.31862071,126.7265578,061-390-7567,전라남도 장성군청,관리사무소+화장실+주차장,청백한옥,풋살경기장+국궁장+홍길동산채체험관,야영장,4D영상관+홍길동전시관,정보없음,200,테마파크/놀이공원
주왕산 관광지,관광지,경상북도 청송군 주왕산면 주왕산로 494,36.37813214,129.108598,054-870-6239,경상북도 청송군청,관리사무소+주차장+진입광장+도로+배수지+오수처리장,콘도미니엄,정보없음,허브가든+도예촌+전망휴게소+유교문화체험관+민예촌+박물관,정보없음,정보없음,708,자연
송도해상케이블카,관광지,부산광역시 서구 송도해변로 171,35.07664334,129.0233986,051-240-4701,부산광역시 서구청,화장실+주차장,정보없음,케이블카 캐빈 39기,레스토랑+전망대 등,송도해상케이블카 안내데스크(상부+하부 2곳),정보없음,892,기타
작괘천,관광지,,35.55162452,129.0953395,052-204-2346,울산광역시 울주군청,샤워실+급수대+화장실,펜션+야영장,캠핑장+산책로,작천정+캠핑장,정보없음,정보없음,2000,기타
대운산 내원암 계곡,관광지,울산광역시 울주군 온양읍 대운상대길 382,35.39913422,129.2309807,052-204-2345,울산광역시 울주군청,화장실+주차장,정보없음,정보없음,산책로+사찰,정보없음,정보없음,500,자연
간절곶 공원,관광지,울산광역시 울주군 서생면 간절곶해안길 205,35.3625312,129.3591079,052-204-1754,울산광역시 울주군청,주차장+화장실,펜션,산책로+카페,카페+소망우체통,정보없음,정보없음,580,산책/휴식
온달관광지,관광지,충청북도 단양군 영춘면 온달로 23,37.06295564,128.4929221,043-423-8820,단양관광공사,화장실+주차장,정보없음,드라마세트장+온달동굴,온달전시관,정보없음,정보없음,265,기타
천동관광지,관광지,충청북도 단양군 단양읍 다리안로 520,36.97401141,128.4165952,043-423-3589,단양관광공사,화장실+주차장,야영장,물놀이장+천동동굴,정보없음,정보없음,정보없음,80,기타
다리안관광지,관광지,충청북도 단양군 단양읍 소백산등산길 12,36.9647819,128.4207808,043-423-1243,단양관광공사,화장실+주차장,돔하우스+통나무집+캠핑장,원두막+야영장+돔하우스+캠핑장,정보없음,정보없음,정보없음,155,기타
고양관광정보센터,관광지,경기도 고양시 일산동구 중앙로1271-1,37.65948674,126.7726989,031-905-8396,경기도 고양시청 관광과,핸드폰충전 +컴퓨터 검색 + 우산대여서비스 + 휠체어대여 서비스 + 유모차대여서비스 + 휴계공간 + 공용화장실 + 정수기 +,정보없음,버스킹존 + 민속놀이 체험존,고양시 관광지 자료배포+행사 안내,영상관25명 + 관광회의실 12명 + 북쉼터 15명 + 루프탑 30명 + 공유오피스 40명,영상관+회의실+북쉼터+영상창작실+루프탑+관광기념품판매점 + 카페,0,기타
행주산성,관광지,경기도 고양시 덕양구 행주로 15번길 89,37.59610775,126.8287118,031-8075-4642,경기도 고양시청 관광과,휠체어대여 서비스+ 유모차대여서비스 + 교통약자 차량 지원+ 공중화장실 +,정보없음,민속놀이 체험존,행주산성 문화재 관광 안내+행사 안내,대첩기념관 20여명 + 충의정 20여명,영상교육관 + 대첩기념관,230,자연
나들라온,관광지,경기도 고양시 일산동구 장대들길 747,37.64063549,126.7560031,031-8075-4642,경기도 고양시청 관광과,식수대 + 화장실 + 휴계공간,정보없음,병영체험실,고양시 관광지 자료배포+행사 안내,병영체험실50명 + 회의실 100명,병영체험실 + 회의실,3,기타
팔공산 하늘정원,관광지,,36.023813,128.696761,054-380-7943,대구광역시 군위군청,정자+탐방로,정보없음,정자+탐방로,정자+탐방로,정보없음,정보없음,10,자연
김수환 추기경 사랑과 나눔 공원,관광지,대구광역시 군위군 군위읍 군위금성로 270,36.232449,128.599613,054-380-6866,대구광역시 군위군청,공원,정보없음,정보없음,기념관+경당+추기경생가+십자가의 길+평화의 숲+추모정원+중앙광장+잔디광장+옹기가마,정보없음,정보없음,20,산책/휴식
사라온 이야기 마을,관광지,대구광역시 군위군 군위읍 동서길 49,36.236155,128.567733,054-380-7216,대구광역시 군위군청,관리사무소+주차장,정보없음,정보없음,야외쉼터+환희문(정문)+적라촌+적라청+적라골,매표소,정보없음,70,전통
장도청해진유적지,관광지,,34.36012506,126.7369503,061-550-6945,전라남도 완도군청 시설관리사업소,화장실+주차장+관광안내소,정보없음,정보없음,정보없음,정보없음,정보없음,100,역사
장보고기념관,관광지,전라남도 완도군 완도읍 청해진로 1455,34.355097,126.730164,061-550-6945,전라남도 완도군청 시설관리사업소,화장실+주차장+관광안내소,정보없음,정보없음,정보없음,정보없음,정보없음,100,문화
해양생태전시관,관광지,전라남도 완도군 완도읍 청해진로 1459,34.351532,126.731489,061-550-6944,전라남도 완도군청 시설관리사업소,화장실+주차장+관광안내소,정보없음,정보없음,정보없음,정보없음,정보없음,100,자연
완도수목원,관광지,전라남도 완도군 군외면 초평1길 156,34.36065258,126.6635321,061-552-1544,전라남도 산림연구원,화장실+주차장+관광안내소,정보없음,정보없음,정보없음,정보없음,정보없음,100,플라워/가드닝
청해포구촬영장,관광지,전라남도 완도군 완도읍 청해진서로 1161-8,34.32293555,126.6705189,061-555-4500,전라남도 완도청해포구촬영장,화장실+주차장+관광안내소,정보없음,정보없음,정보없음,정보없음,정보없음,100,기타
어촌민속전시관,관광지,전라남도 완도군 완도읍 화흥포길 149,34.307331,126.688559,061-550-6910,전라남도 완도군청 시설관리사업소,화장실+주차장+관광안내소,정보없음,정보없음,정보없음,정보없음,정보없음,100,기타
슬로시티청산도,관광지,전라남도 완도군 청산면 청산로 132,34.17179242,126.8621742,061-550-6490,전라남도 청산면사무소,화장실+주차장+관광안내소,정보없음,정보없음,정보없음,정보없음,정보없음,100,자연
보길윤선도원림,관광지,전라남도 완도군 보길면 부황길 57,34.16247899,126.5559442,061-550-6637,전라남도 완도군청 문화예술과,화장실+주차장+관광안내소,정보없음,정보없음,정보없음,정보없음,정보없음,100,기타
모악산도립공원,관광지,전라북도 완주군 구이면 모악산길 91,35.72946608,127.1098589,063-290-2753,전라북도 완주군청,관리사무소+공영주차장,관광호텔,정보없음,관리사무소+공영주차장,관리사무소+공영주차장,정보없음,300,자연
고산자연휴양림,관광지,전라북도 완주군 고산면 고산휴양림로 246,35.96224205,127.2328719,063-290-2766,전라북도 완주군청,물놀이장+물썰매장+임간수련장+숲속의집+야영장+삼림욕장+등산로,산림휴양시설+자동차야영장,정보없음,물놀이장+물썰매장+임간수련장+숲속의집+야영장+삼림욕장+등산로,물놀이장+물썰매장+임간수련장+숲속의집+야영장+삼림욕장+등산로,정보없음,200,자연
상관 공기마을 편백숲,관광지,전라북도 완주군 상관면 죽림편백길 191-24,35.737491,127.2023884,063-290-2624,전라북도 완주군청,공영주차장+공중화장실+관광안내소,콘도+리조트,정보없음,공영주차장+공중화장실+관광안내소,공영주차장+공중화장실+관광안내소,정보없음,100,전통
대아수목원&대아호,관광지,전라북도 완주군 동상면 대아수목로 94-34,35.97623865,127.3003851,063-280-4590,전라북도,수목원+천연림+건축시설+교육시설,관광숙박,정보없음,수목원+천연림+건축시설+교육시설,수목원+천연림+건축시설+교육시설,정보없음,145,플라워/가드닝
비비정,관광지,전라북도 완주군 삼례읍 비비정길 96-9,35.90154901,127.071693,063-211-7788,비비정,주차장,정보없음,정보없음,주차장,주차장,정보없음,20,기타
설산,관광지,,35.29950593,127.1025224,061-360-8780,전라남도 곡성군청 산림과,주차장,정보없음,정보없음,정보없음,정보없음,정보없음,34,자연
통명산,관광지,,35.20404024,127.2592454,061-360-8780,전라남도 곡성군청 산림과,주차장,정보없음,정보없음,정보없음,정보없음,정보없음,10,자연
조태일시문학기념관,관광지,전라남도 곡성군 죽곡면 태안로 622-38,35.13351552,127.3685909,061-362-5868,전라남도 곡성군청 문화체육과,주차장,정보없음,정보없음,정보없음,정보없음,정보없음,9,문화
섬진강문화학교 독도사진전시관,관광지,전라남도 곡성군 죽곡면 태안로 793,35.14820762,127.3603367,061-362-0313,전라남도 곡성군청 관광과,주차장,정보없음,정보없음,정보없음,정보없음,정보없음,10,체험
시사교육박물관 김갑진 갤러리,관광지,전라남도 곡성군 목사동면 대곡당산길 1,35.11000012,127.262542,061-362-9004,전라남도 곡성군청 문화체육과,주차장+무선 인터넷+화장실,정보없음,정보없음,정보없음,정보없음,정보없음,20,문화
화진포 생태박물관,관광지,강원특별자치도 고성군 거진읍 화진포길 256,38.47218738,128.4436214,033-680-3361,강원특별자치도 고성군청,화장실+주차장,정보없음,정보없음,정보없음,정보없음,정보없음,20,문화
송지호 관망타워,관광지,강원특별자치도 고성군 죽왕면 동해대로 6021,38.33623615,128.5175989,033-680-3361,강원특별자치도 고성군청,화장실+주차장,정보없음,정보없음,정보없음,정보없음,정보없음,50,야경/전망대
어답산관광지,관광지,강원특별자치도 횡성군 갑천면 어답산로 516,37.59380861,128.0575207,033-340-5985,강원특별자치도 횡성군,캠핑장+계곡,민박+펜션,족구장,정보없음,정보없음,정보없음,400,자연
유현문화관광지,관광지,강원특별자치도 횡성군 서원면 경강로유현1길 30,37.52903211,127.8186829,033-340-5987,강원특별자치도 횡성군,성당+유물전시관,정보없음,정보없음,정보없음,정보없음,정보없음,60,기타
도장포어촌체험마을,관광지,경상남도 거제시 남부면 도장포1길 76,34.743449,128.662475,055-638-2202,경상남도 거제시청,화장실+ 샤워장+ 취사장,해상콘도,정보없음,정보없음,정보없음,정보없음,78,전통
쌍근어촌체험마을,관광지,경상남도 거제시 남부면 남부해안로 1094,34.762399,128.589438,055-635-6238,경상남도 거제시청,화장실+ 샤워장+ 취사장,해상콘도,정보없음,정보없음,정보없음,정보없음,30,전통
씨라인,관광지,경상남도 거제시 덕포5길 32-3,34.91111602,128.7102346,055-688-2351,씨라인,화장실,정보없음,짚라인,정보없음,정보없음,정보없음,50,기타
오션어드벤처,관광지,경상남도 거제시 일운면 거제대로 2660,34.843791,128.702943,1588-4888,오션베이,화장실+ 샤워장,콘도,정보없음,정보없음,안내소,정보없음,30,기타
옥포대첩기념공원,관광지,경상남도 거제시 팔랑포2길 87,34.902196,128.714059,055-639-8129,경상남도 거제시 거제해양관광개발공사,화장실,정보없음,정보없음,정보없음,안내소,정보없음,50,산책/휴식
조선해양문화관,관광지,경상남도 거제시 일운면 지세포해안로 41,34.833694,128.701885,055-639-8270,조선해양문화관,화장실,정보없음,정보없음,전시실,안내소,정보없음,30,기타
지심도,관광지,경상남도 거제시 일운면 지심도길 56-12,34.81531906,128.6750514,055-639-4193,경상남도 거제시청,화장실,민박(펜션),정보없음,정보없음,정보없음,정보없음,20,기타
칠천량해전공원,관광지,경상남도 거제시 하청면 칠천로 265-39,34.977629,128.628247,055-639-8250,경상남도 거제시 거제해양관광개발공사,화장실,정보없음,정보없음,전시실,안내소,정보없음,40,산책/휴식
철암탄광역사촌,관광지,강원특별자치도 태백시 동태백로 406,37.11436554,129.0372165,033-582-8070,강원특별자치도 태백시청,주차장+도로+공중화장실+집,정보없음,정보없음,정보없음,정보없음,정보없음,50,철도/교통 체험
석탄박물관,관광지,강원특별자치도 태백시 천제단길 195,37.11857739,128.9505662,033-552-7720,강원특별자치도 태백시청,주차장+도로+공중화장실+다목적공원+석탄박물관,정보없음,정보없음,정보없음,정보없음,정보없음,50,문화
태백고생대자연사박물관,관광지,강원특별자치도 태백시 태백로 2249,37.0948994,129.0396319,033-581-8181,강원특별자치도 태백시청,주차장+도로+공중화장실+다목적공원+자연사박물관,정보없음,정보없음,정보없음,정보없음,정보없음,50,문화
탑산약수온천,관광지,경상북도 의성군 봉양면 도리원2길 88-42,36.30396195,128.5892642,054-833-5001,경상북도 의성군청,관리사무소 + 화장실 + 주차장,총객실수 33,정보없음,정보없음,정보없음,정보없음,200,자연
후곡약수터,관광지,강원특별자치도 양구군 동면 약수터길 90-1,38.16733552,128.0573744,033-480-7204,강원특별자치도 양구군청,화장실+주차공간,정보없음,정보없음,정보없음,정보없음,정보없음,40,기타
대광해수욕장,관광지,전라남도 신안군 임자면 대광해수욕장길 179,35.10291276,126.0725117,061-240-3554,임자면,화장실(6동)+주차장(4개소)+취사장(5동)+관리사업소(1동),정보없음,정보없음,정보없음,정보없음,정보없음,1000,계절별 명소
완도타워,관광지,전라남도 완도군 완도읍 장보고대로 330,34.31443839,126.763267,061-550-7642,전라남도 완도해양치유관리공단,화장실+주차장+관광안내소,정보없음,정보없음,정보없음,정보없음,정보없음,100,야경/전망대
화진포역사안보전시관,관광지,강원특별자치도 고성군 거진읍 화진포길 280,38.47250515,128.4430602,033-682-0500,국군복지단,화장실+주차장,정보없음,정보없음,정보없음,정보없음,정보없음,60,철도/교통 체험
화진포해양박물관,관광지,강원특별자치도 고성군 현내면 화진포길 412,38.481345,128.435682,033-680-3361,강원특별자치도 고성군청,화장실+주차장,정보없음,정보없음,정보없음,정보없음,정보없음,100,문화
윤동주 유고 보존 정병욱 가옥,관광지,전라남도 광양시 진월면 망덕길 249,34.97075423,127.759122,061-797-2418,전라남도 광양시청 문화예술과,화장실,정보없음,정보없음,정보없음,정보없음,정보없음,1000,기타
광양매화문화관,관광지,전라남도 광양시 다압면 지막1길 21,35.07665864,127.7180474,061-797-3363,전라남도 광양시청 관광과,화장실+주차장+매점,정보없음,정보없음,정보없음,정보없음,정보없음,1000,기타
느랭이골자연리조트,관광지,전라남도 광양시 토끼재길 119-32,35.06003247,127.7114041,1588-2704,느랭이골 자연휴양림 글램핑장,화장실+주차장+매점+매표소,글램핑 40동,힐링산책로+LED 별빛축제,정보없음,레스토랑,관리사무소,1000,자연
구봉산전망대,관광지,전라남도 광양시 구봉산전망대길 155,34.93646837,127.6427008,061-797-2296,전라남도 광양시청 시설관리과,주차장+화장실,정보없음,정보없음,정보없음,카페테리아,관리사무소,1000,자연
광양항해양공원,관광지,,34.92127751,127.6939636,061-797-3363,전라남도 광양시청 관광과,주차장+화장실,정보없음,정보없음,정보없음,정보없음,정보없음,1000,산책/휴식
무지개다리,관광지,,34.93679857,127.715141,061-797-3363,전라남도 광양시청 관광과,주차장+화장실,정보없음,정보없음,정보없음,정보없음,정보없음,1000,기타
해오름육교,관광지,,34.93442662,127.7061606,061-797-3363,전라남도 광양시청 관광과,주차장+화장실,정보없음,정보없음,정보없음,정보없음,정보없음,1000,기타
배알도수변공원,관광지,,34.959931,127.7601849,061-797-3363,전라남도 광양시청 관광과,주차장+화장실,정보없음,정보없음,캠핑장,정보없음,정보없음,1000,산책/휴식
광양 김 시식지,관광지,전라남도 광양시 김시식지1길 57-6,34.94697848,127.7519933,061-797-2418,전라남도 광양시청 문화예술과,주차장+화장실,정보없음,정보없음,정보없음,정보없음,정보없음,1000,기타
동악산,관광지,전라남도 곡성군 곡성읍 도림로 175,35.26726372,127.2575047,061-360-8772,전라남도 곡성군청 산림과,주차장+화장실,정보없음,정보없음,정보없음,정보없음,정보없음,76,자연
봉두산,관광지,전라남도 곡성군 죽곡면 태안로 622-215,35.13195828,127.3863807,061-360-8780,전라남도 곡성군청 산림과,주차장,정보없음,정보없음,정보없음,정보없음,정보없음,9,자연
노루생태관찰원,관광지,제주특별자치도 제주시 명림로 520(봉개동),33.4443253,126.6266934,064-728-3611,제주특별자치도 제주시 절물생태관리소,사무실 전시실+상시관찰원+사육동+관찰로+어린이놀이시설+파고라 등,정보없음,정보없음,정보없음,정보없음,정보없음,92,자연
제주별빛누리공원,관광지,제주특별자치도 제주시 선돌목동길 60(오등동),33.4445529,126.5491863,064-728-8900,제주특별자치도 제주시 관광진흥과,4D입체영상관+천체투영실+천체관측실+전시실,정보없음,정보없음,정보없음,정보없음,정보없음,100,산책/휴식
팔봉산관광지,관광지,강원특별자치도 홍천군 서면 한치골길 1124,37.703098,127.695183,033-430-2471,강원특별자치도 홍천군청,관리사무소+화장실+주차장,정보없음,풋살장,캠핑장+공연장,향토식당,관리사무실,150,자연
소노벨비발디파크,관광단지,강원특별자치도 홍천군 서면 한치골길 262,37.65233706,127.6873348,033-430-2471,강원특별자치도 홍천군청,관리사무소+화장실+주차장,휴양콘도미니엄,골프장+스키장+승마장,오션월드,관광공연장+식당 등,직원전용 숙소,2000,테마파크/놀이공원
통일전망대,관광지,강원특별자치도 고성군 현내면 금강산로 481,38.51438609,128.416703,033-682-0088,강원특별자치도 고성군청,화장실+주차장,정보없음,정보없음,정보없음,정보없음,정보없음,320,야경/전망대
거제박물관,관광지,경상남도 거제시 거제대로 3791(옥포동),34.894071,128.686203,055-687-6790,거제박물관,화장실,정보없음,정보없음,전시실,안내소,정보없음,10,문화
거제시농업개발원,관광지,경상남도 거제시 거제면 거제남서로 3577,34.856464,128.579187,055-639-6421,거제시농업개발원,화장실,정보없음,정보없음,전시실,안내소,정보없음,50,기타
거제요트학교,관광지,경상남도 거제시 일운면 지세포해안로 41,34.833694,128.701885,055-682-1100,경상남도 거제시청,화장실,정보없음,정보없음,정보없음,안내소,정보없음,25,체험
거제자연휴양림,관광지,경상남도 거제시 동부면 거제중앙로 325,34.785699,128.625943,055-639-8115,경상남도 거제시 거제해양관광개발공사,화장실+ 샤워장+ 취사장,야영데크+ 숲속의집(펜션)+ 수련장,족구장,등산로+산책로,안내소,정보없음,50,자연
계도어촌체험마을,관광지,경상남도 거제시 사등면 가조로 837,34.974872,128.517512,055-632-2515,경상남도 거제시청,화장실+ 샤워장+ 취사장,해상콘도,정보없음,정보없음,안내소,정보없음,10,전통
다대어촌체험마을,관광지,경상남도 거제시 남부면 다대5길 11,34.73449995,128.630513,055-632-7506,경상남도 거제시청,화장실+ 샤워장+ 취사장,해상콘도,정보없음,정보없음,정보없음,정보없음,10,전통
협재관광지,관광지,,33.39349585,126.2385969,064-728-2762,제주특별자치도 제주시 관광진흥과,관리사무소+화장실(4동)+취사장(2동)+샤워탈의장(2동)+주차장,정보없음,다목적운동장+해수풀장,야영장+조경휴게소,정보없음,정보없음,534,기타
곽지관광지,관광지,,33.4499564,126.3041171,064-728-2762,제주특별자치도 제주시 관광진흥과,관리사무소+화장실(2동)+주차장+목욕장,정보없음,정보없음,야영장+조경휴게소+광장,정보없음,정보없음,331,기타
김녕관광지,관광지,,33.5548971,126.7654535,064-728-2762,제주특별자치도 제주시 관광진흥과,관리사무소+화장실(2동)+주차장+샤워탈의장+취사장+여름파출소,정보없음,다목적운동장+야영장+피크닉장+광장+조경휴게지,정보없음,정보없음,정보없음,234,기타
절물자연휴양림,관광지,제주특별자치도 제주시 명림로 584(봉개동),33.44004881,126.6252034,064-728-1510,제주특별자치도 제주시 절물생태관리소,관리사무실 1동(매표소)+방문자센터(전시실. 영상상영관)+물품보관실+공중화장실 2동+연못 2개소+어린이놀이터 3개소+주차시설(7.212㎡) 등,숲속의 집 7동 19실+산림문화휴양관 1동10실,정보없음,정보없음,정보없음,정보없음,238,자연
농월정,관광지,경상남도 함양군 안의면 농월정길 9-35,35.62464301,127.7815571,055-960-4520,경상남도 함양군청,도로+주차장+관리사무소+화장실+노유자시설,정보없음,정보없음,캐빈하우스+오토캠핑장,정보없음,정보없음,150,기타
청소년전통문화체험관,관광지,전라북도 완주군 고산면 대아저수로 416,35.98879491,127.261342,070-4100-1100,전라북도 완주군청,주차장+화장실,정보없음,정보없음,주차장+화장실,주차장+화장실,정보없음,100,체험
놀토피아,관광지,전라북도 완주군 고산면 대아저수로 416,35.98879491,127.261342,070-4100-1100,전라북도 완주군청,주차장+화장실,정보없음,정보없음,주차장+화장실,주차장+화장실,정보없음,100,기타
오성한옥마을,관광지,전라북도 완주군 소양면 오도길 73,35.90695186,127.2367573,063-243-1022,오성한옥마을,주차장+숙박시설+카페,관광숙박+한옥체험,정보없음,주차장+숙박시설+카페,주차장+숙박시설+카페,정보없음,100,전통
무궁화오토캠핑장,관광지,전라북도 완주군 고산면 고산휴양림로 89,35.97398132,127.2315513,063-290-2762,전라북도 완주군청,주차장+화장실,자동차야영장,정보없음,주차장+화장실,주차장+화장실,정보없음,100,야외활동
송광사&벚꽃길,관광지,전라북도 완주군 소양면 송광수만로 255-16,35.885763,127.2417509,063-243-8091,송광사,주차장,정보없음,정보없음,주차장+템플스테이,주차장+템플스테이,정보없음,40,플라워/가드닝
위봉사&위봉폭포&위봉산성,관광지,전라북도 완주군 소양면 위봉길 53,35.9105769,127.2572831,063-243-7657,위봉사,주차장,정보없음,정보없음,주차장,주차장,정보없음,20,자연
화암사,관광지,전라북도 완주군 경천면 화암사길 271,36.06629938,127.2872339,063-261-7576,화암사,주차장+공중화장실,정보없음,정보없음,주차장+공중화장실,주차장+공중화장실,정보없음,20,기타
레인보우힐링관광지,관광지,,36.15635341,127.7865137,043-740-3634,충청북도 영동군청,주차장+화장실,영동 일라이트휴양빌리지+일라이트 호텔,골프연습장,정보없음,정보없음,정보없음,450,기타
송호관광지,관광지,충청북도 영동군 양산면 송호로 105,36.12969079,127.676367,043-740-3632,충청북도 영동군청,주차장+화장실,야영장,축구장+다목적구장,정보없음,정보없음,정보없음,310,기타
유니온파크,관광지,경기도 하남시 미사대로 710,37.54654783,127.2205032,031-790-6255,경기도 하남시청 체육진흥과,도로+주차장+관리사무소+화장실,정보없음,다목적 체육관+테니스장+족구장+농구장+체육시설+어린이 물놀이시설,유니온타워+야외무대,정보없음,정보없음,237,테마파크/놀이공원
광주향교,관광지,경기도 하남시 대성로 126-13,37.52207622,127.1984175,031-790-5971,경기도 하남시청 문화정책과,공중화장실,정보없음,정보없음,정보없음,정보없음,정보없음,45,기타
이성산성,관광지,,37.52530687,127.1847777,031-790-5971,경기도 하남시청 문화정책과,주차장+화장실+공원,정보없음,정보없음,정보없음,정보없음,정보없음,35,자연
미사경정공원,관광지,경기도 하남시 미사대로 505,37.55330797,127.2131671,031-790-8883,한국체육산업개발주식회사,조정호수+축구장+족구장+매점+자전거대여 등,정보없음,"조정호수, 축구장, 족구장, 매점, 자전거대여 등",정보없음,정보없음,정보없음,3500,산책/휴식
자갈치시장,관광지,부산광역시 중구 자갈치해안로 52,35.09661444,129.0305818,051-245-2594,부산 시설공단,화장실+주차장,관광호텔+게스트하우스,정보없음,정보없음,정보없음,정보없음,0,시장/쇼핑
40계단테마거리,관광지,부산광역시 중구 대청로135번길 13,35.10397225,129.0346287,051-600-4046,부산광역시 중구,공중화장실,정보없음,정보없음,40계단 문화관,정보없음,정보없음,0,기타
BIFF광장,관광지,부산광역시 중구 비프광장로 36,35.09862035,129.0287588,051-600-4084,부산광역시 중구,공중화장실,호텔+게스트하우스,정보없음,정보없음,정보없음,정보없음,0,기타
영도대교,관광지,부산광역시 중구 태종로 8,35.09725344,129.035681,051-780-0062,부산 시설공단,공중화장실,정보없음,정보없음,정보없음,정보없음,부산중구 관광안내소,0,기타
청평사(춘천),관광지,강원특별자치도 춘천시 북산면 오봉산길 810,37.986071,127.808407,033-244-1095,강원특별자치도 춘천시청,도로+주차장+하수처리장+관리사무소 2동+매표소 2동+화장실 3동+다목적광장,휴양콘도미니엄+여관+펜션,계곡+구성폭포,오봉산+소양댐+야영장+전망대,정보없음,정보없음,137,기타
신영,관광단지,강원특별자치도 춘천시 동산면 종자리로 148-16,37.747692,127.7252549,033-269-8888,신영종합개발(주),주차장+화장실+도로+전기시설+통신시설+상하수도시설+관광안내소+오수처리장,관광호텔+휴양콘도미니엄,저류지+클럽하우스+수위실+스키하우스+전망대+슬로프,커뮤니티센터,관광식당,정보없음,311,기타
라비에벨,관광단지,강원특별자치도 춘천시 동산면 종자리로 436,37.741217,127.7578198,033-245-7000,코오롱글로벌㈜,주차장+화장실+도로+광장+전기시설+통신시설+상하수도시설+관광안내소+오수처리장,한국전통호텔+관광호텔+휴양콘도미니엄,클럽하우스+승마장+골프장+티하우스,양회공연장+트레킹코스+전망대+수목원+체험농장+컨퍼런스센터+아울렛,관광식당,정보없음,317,기타
맹종죽테마공원,관광지,경상남도 거제시 하청면 거제북로 700,34.967708,128.650512,055-637-0067,경상남도 거제시청,화장실,정보없음,서바이벌 체험장,맹종족 숲체험,안내소,정보없음,20,산책/휴식
대관령어흘리관광지,관광지,강원특별자치도 강릉시 성산면 삼포암길 17,37.719113,128.7959193,033-640-5685,강원특별자치도 강릉시청,화장실+주차장,정보없음,정보없음,대관령박물관,정보없음,정보없음,122,기타
예천포리관광지,관광지,경상북도 예천군 감천면 복골길 150,36.70015808,128.514204,054-650-6394,경상북도 예천군청,주차장+화장실+휴게공간,정보없음,다목적운동장+체력단련장+전통놀이광장,박물관,정보없음,정보없음,150,기타
예천삼강,관광지,경상북도 예천군 풍양면 삼강리길 53-23,36.56378393,128.304509,054-650-6802,경상북도 예천군청,도로+마당+종합안내센터+주차장+공급처리시설+화장실,전통가옥체험장+강문화체험 휴·유·락마을,정보없음,강문화전시관,정보없음,정보없음,100,기타
구문소 관광지,관광지,강원특별자치도 태백시 동태백로11(동점동),37.09296812,129.0422636,033-550-1360,강원특별자치도 태백시청,주차장+도로+공중화장실+다목적공원+자연사박물관,구문소마을펜션 3동,정보없음,정보없음,정보없음,정보없음,150,기타
용연동굴,관광지,강원특별자치도 태백시 태백로 283-29,37.20888277,128.9418601,033-553-8584,강원특별자치도 태백시청,주차장+도로+공중화장실+동굴관람,정보없음,정보없음,정보없음,정보없음,정보없음,100,자연
대가야역사테마관광지,관광지,경상북도 고령군 대가야읍 대가야로 1216,35.72008263,128.2596761,054-950-7005,경상북도 고령군청,관리사무실(매표소) 1동+수유실(1동)+공중화장실(2동)+문화관광안내소(1동)+연못 1개소+어린이놀이터 1개소+음악분수,대가야 펜션 10실+인빈관 4실,정보없음,"작은영화관 1개소(2개관, 총 99석)","세미나실(주산실 50석, 금산실 28석)",정보없음,178,철도/교통 체험
신륵사관광지,관광지,경기도 여주시 신륵사길 73,37.29742583,127.6599364,031-887-2070,경기도 여주시청,관광안내소+주차장,관광호텔+여관+콘도,물놀이장+오락장,청소년 수련실+야외음악당,정보없음,정보없음,1830,기타
순천만습지,관광지,전라남도 순천시 순천만길 513-25(대대동),34.88579701,127.5092833,061-749-6052,전라남도 순천시청 순천만보전과,순천만쉼터+ 공예·특산품관+ 안내소+유모차대여+양산대여,정보없음,용산전망대+순천만갈대밭,순천문학관+체험선+순천만역사관+자연생태관,정보없음,정보없음,600,기타
낙안읍성,관광지,전라남도 순천시 낙안면 충민길 30(동내리),34.90640107,127.3418227,061-749-8840,전라남도 순천시청 낙안읍성지원사업소,주차장+ 화장실+ 음수대+ 매표소+ 관광안내소+ 전시가옥+ 체험장+ 자료관+ 교통통제소,개인 민박(36개소),정보없음,정보없음,식당(난전1~4호점)+ 매점,정보없음,565,기타
드라마촬영장,관광지,전라남도 순천시 비례골길 24(조례동),34.95810919,127.5378026,061-749-4540,전라남도 순천시청 관광과,주차장+화장실+음수대+매표소+관광안내소+전시가옥+체험장+자료관+수유실+여행자쉼터,해당없음,추억음악실+청춘사진관+뽑기방+오락실,순양극장+언약의집+시간여행영화속으로+여행자쉼터,매점+장터,해당없음,170,기타
뿌리깊은나무박물관,관광지,전라남도 순천시 낙안면 평촌3길 45,34.9036464,127.3399827,061-749-8858,전라남도 순천시청 문화유산과,박물관 쉼터+ 물품보관소+ 매표소+ 안내데스크,해당없음,해당없음,해당없음,해당없음,해당없음,40,문화
송광사,관광지,전라남도 순천시 송광면 송광사안길 100,35.00236255,127.2748706,061-755-0107,전라남도 순천시청 송광면,쉼터,정보없음,정보없음,정보없음,정보없음,정보없음,300,기타
선암사,관광지,전라남도 순천시 승주읍 선암사길 450,34.99618213,127.327356,061-754-5247,전라남도 순천시청 승주읍,화장실+ 매표소+ 주차장+ 종무소(안내소)+ 기념품판매소(선각당+ 금강서적),심검당+ 창파당+ 설선당+ 해천당,해당없음,불교대학+ 템플스테이,공양간+ 선각당(찻집),없음,330,기타
에코촌유스호스텔,관광지,전라남도 순천시 해룡면 생태배움길 123,34.92310938,127.5164423,061-749-4816,전라남도 순천시청 관광과,화장실,숙박시설 20개,씨름장,정보없음,정보없음,에코관+ 생태관+ 식당+ 자가취사장,45,기타
순천자연휴양림,관광지,전라남도 순천시 서면 청소년수련원길 170,35.04388083,127.4744949,061-749-8948,전라남도 순천시청 산림과,화장실+ 취사장+ 샤워장,객실 29실+ 캐빈하우스 6동+ 야영장 19면,정보없음,숲속치유의집+ 유아숲체험원,정보없음,관리사무소,80,자연
기독교역사박물관,관광지,전라남도 순천시 매산길 61(매곡동),34.96043473,127.4801207,061-749-8858,전라남도 순천시청 문화유산과,작은 도서관+ 안내데스크,해당없음,해당없음,해당없음,해당없음,해당없음,4,문화
승주골프장,관광지,전라남도 순천시 별량면 오실길 333,34.89477542,127.4482083,061-740-8181,전라남도 순천시청 승주읍,주차장,정보없음,정보없음,정보없음,정보없음,정보없음,400,레저/스포츠
파인힐스골프장,관광지,전라남도 순천시 주암면 송광사길 99,35.03454985,127.2723022,061-750-9000,전라남도 순천시청 주암면,클럽하우스+ 락카룸+ 사우나,골프텔(36객실),27홀,정보없음,레스토랑+ 그늘집+ 프로샵,정보없음,300,레저/스포츠
레이크힐스골프장,관광지,전라남도 순천시 주암면 행정1길 77,35.0453779,127.3092617,061-729-8888,전라남도 순천시청 주암면,클럽하우스+ 락카룸+ 사우나,골프텔,36홀,정보없음,레스토랑+ 프로샵,정보없음,400,레저/스포츠
순천컨트리클럽,관광지,전라남도 순천시 별량면 동화사길 85,34.86653556,127.4059214,061-720-0000,전라남도 순천시청 별량면,골프장,정보없음,정보없음,정보없음,매점+식당,정보없음,150,기타
부영컨트리클럽,관광지,전라남도 순천시 해룡면 신대로 188,34.94005246,127.5555065,061-816-5500,전라남도 순천시청 해룡면,ATM,호텔,골프연습장,정보없음,호텔 76객실,정보없음,150,기타
그림책도서관,관광지,전라남도 순천시 도서관길 33(동외동),34.9579091,127.4860252,061-749-8892,전라남도 순천시청 도서관운영과,화장실+ 수유실,정보없음,정보없음,인형극장,카페테리아,정보없음,20,기타
순천시청소년수련원,관광지,전라남도 순천시 서면 청소년수련원길 167,35.04652524,127.4733227,061-755-6296,전라남도 순천시청 평생학습과,화장실,정보없음,정보없음,정보없음,정보없음,정보없음,100,기타
순천용오름마을,관광지,전라남도 순천시 주암면 운룡2길 17,35.0921171,127.2020571,061-754-2416,전라남도 순천시청 주암면,화장실+ 테마체험관+,숙박시설 5개,정보없음,용오름계곡,매점+ 용오름장터,정보없음,50,전통
사라실 라벤더 단지,관광지,,35.04162939,127.270748,061-762-0723,사라실라벤터 영농조합법인,화장실+주차장+기념품판매소+매표소,정보없음,정보없음,정보없음,레스토랑+카페테리아,관리사무소,1000,기타
사라실 예술촌,관광지,전라남도 광양시 사곡로 201,34.962211,127.626222,061-797-2734,전라남도 광양시청 문화예술과,주차장+화장실,정보없음,정보없음,정보없음,정보없음,정보없음,1000,문화
광양 마로산성,관광지,,34.966742,127.619496,061-797-2418,전라남도 광양시청 문화예술과,주차장+화장실,정보없음,정보없음,정보없음,정보없음,정보없음,1000,자연
광양 궁시장,관광지,,34.98778794,127.5865036,061-763-1154,광양궁시전수교육관,"화장실,+궁시체험장",정보없음,정보없음,정보없음,정보없음,정보없음,1000,시장/쇼핑
매천황현생가,관광지,전라남도 광양시 봉강면 서석길 14-3,34.99341564,127.561707,061-797-2418,전라남도 광양시청 문화예술과,화장실,정보없음,정보없음,정보없음,정보없음,정보없음,1000,역사
비비정예술열차,관광지,전라북도 완주군 삼례읍 비비정길 73-21,35.89880244,127.0676418,063-211-7788,전라북도 완주군청,주차장+레스토랑+아트숍+카페,정보없음,정보없음,주차장+레스토랑+아트숍+카페,주차장+레스토랑+아트숍+카페,정보없음,20,문화
삼례문화예술촌,관광지,전라북도 완주군 삼례읍 삼례역로 81-13,35.90623513,127.0658535,063-290-2614,전라북도 완주군청,관리사무소+화장실(3동)+주차장,관광호텔,정보없음,관리사무소+화장실(3동)+주차장,관리사무소+화장실(3동)+주차장,정보없음,30,문화
삼례책마을,관광지,전라북도 완주군 삼례읍 삼례역로 68,35.90745719,127.065756,063-290-2614,전라북도 완주군청,주차장+카페+무인서점,관광호텔,정보없음,주차장+카페+무인서점,주차장+카페+무인서점,정보없음,30,전통
그림책미술관,관광지,전라북도 완주군 삼례읍 삼례역로 48-1,35.90832046,127.068059,063-290-2614,전라북도 완주군청,주차장,관광호텔,정보없음,주차장,주차장,정보없음,5,문화
대한민국술테마박물관,관광지,전라북도 완주군 구이면 덕천전원길 232-58,35.726048,127.1361627,063-290-3854,전라북도 완주군청,관리사무소+화장실(5동)+주차장,정보없음,정보없음,관리사무소+화장실(5동)+주차장,관리사무소+화장실(5동)+주차장,정보없음,40,문화
완주전통문화체험장,관광지,전라북도 완주군 고산면 대아저수로 416,35.98879491,127.261342,070-4100-1100,전라북도 완주군청,주차장+화장실,정보없음,정보없음,주차장+화장실,주차장+화장실,정보없음,100,전통
간현관광지,관광지,강원특별자치도 원주시 지정면 소금산길 12,37.36457641,127.834038,033-737-4765,강원특별자치도 원주시청,관리사무소+주차장+화장실+샤워장,민박+모텔,풋살장+족구장,야영장+공연장+수련원,정보없음,정보없음,268,기타
가덕도,관광지,"부산광역시 강서구 동선길 10, (성북동)",35.05664068,128.8316554,051-970-2652,부산광역시 강서구청,강서구관광안내소+화장실+주차장,정보없음,정보없음,정보없음,정보없음,정보없음,248,기타
낙동강제방(강서30리벚꽃길),관광지,"부산광역시 강서구 공항로 1246, (대저1동)",35.20985086,128.9845591,051-971-6011,대저생태공원 관리사무소,관리사무소+화장실+주차장,정보없음,정보없음,정보없음,정보없음,정보없음,1100,플라워/가드닝
대저생태공원,관광지,"부산광역시 강서구 공항로 1246, (대저1동)",35.20985086,128.9845591,051-971-6011,대저생태공원 관리사무소,관리사무소+화장실+주차장,정보없음,축구장(3)+야구장(2)+농구장(8)+테니스장(8)+게이트볼장(4)+인라인스케이트장(1),대저생태공원캠핑장,정보없음,정보없음,1100,자연
맥도생태공원,관광지,"부산광역시 강서구 공항로 500, (대저2동)",35.15230906,128.9549009,051-941-9728,맥도생태공원 관리사무소,관리사무소+화장실+주차장,정보없음,축구장(2)+야구장(1)+농구장(2)+족구장(2)+테니스장(6)+배구장(2)+배드민턴장(3)+게이트볼장(3)+인라인스케이트장(1),정보없음,정보없음,정보없음,122,자연
김대중노벨평화상기념관,관광지,전라남도 목포시 삼학로 92번길 68,34.78285177,126.3922506,061-245-5660,전라남도 목포시청,화장실+주차장+기념품판매점,정보없음,정보없음,박물관,카페테리아,정보없음,10,문화
목포자연사박물관,관광지,전라남도 목포시 남농로 135,34.79372717,126.4210674,061-274-3655,전라남도 목포시청,화장실+주차장+기념품판매점,정보없음,정보없음,박물관,매점,정보없음,450,문화
갓바위,관광지,전라남도 목포시 남농로 135,34.79372717,126.4210674,061-273-0536,전라남도 목포시청,공중화장실,정보없음,정보없음,정보없음,정보없음,정보없음,60,기타
괴강,관광지,충청북도 괴산군 괴산읍 충민로검승3길 10,36.80676203,127.8252917,043-830-3820,충청북도 괴산군,도로+주차장+관리사무소+이벤트광장,"향토음식점, 노변휴게소","극기훈련장, 다목적구장",청소년수련관+생태학습준비실+괴강국민여가캠핑장 야외무대+괴강공원+농업역사박물관,정보없음,녹지,140,기타
수옥정,관광지,"충청북도 괴산군 연풍면 수옥정길 174, 수옥정관광지관리사무소",36.81361722,128.036232,043-830-2683,충청북도 괴산군,주차장+배수지+공중화장실+오수처리장+관리사무소+도로 및 광장,"호텔, 여관, 펜션",물놀이장,저수지 위락시설,정보없음,녹지+사찰+하천 및 저수지,120,기타
고석정,관광지,강원도 철원군 동송읍 태봉로 1825,38.18542141,127.2874037,033-450-5534,철원군청 관광과,"시설물관리사업소, 주차장, 화장실, 매표소, 오수처리장, 도로 및 광장, 임꺽정상, 분수대관광정보센터, 관광안내소",관광호텔,"다목적운동장, 일반유원시설","잔디광장, 정자, 철원관광정보센터, 농업전시관, 팔각정, 생태탐방로","판매점, 종합휴게소",관광안내소,628,기타
명월사지흥국사,관광지,"부산광역시 강서구 허왕후길 182, (지사동)",35.13886951,128.8341451,051-970-4065,부산광역시 강서구청,안내판,정보없음,정보없음,정보없음,정보없음,정보없음,0,기타
렛츠런파크 부산경남,관광지,"부산광역시 강서구 가락대로 929, (범방동)",35.15474347,128.8819186,051-901-7114,렛츠런파크 부산경남공원,종합안내센터+편의용품대여소+화장실+흡연실+마권사는곳+편의점,정보없음,어린이축구장+어린이놀이터+포니승마장+가족테마존+생활체육존국제승마경기장+실내승마장+승용마하우스,정보없음,정보없음,정보없음,4747,자연
강서체육공원,관광지,"부산광역시 강서구 체육공원로 43, (대저1동)",35.21018443,128.9723366,051-970-1200,강서체육공원 관리사무소,관리사무소+화장실+주차장,정보없음,"실내체육관(경기장1개소, 관람석 4189석)+보조체육관(지하1층: 수영장(1개소), 지상1층: 배드민턴장(9면), 지상2층: 트레이닝센터(1), 배트민턴장(3면))+하키경기장(경기장 2면(인조잔디), 관람석 2612석)+양궁경기장(경기장 1면, 관람석 432석)+축구연습장(경기장 2면)+테니스장(인조잔디 4면)+기타시설(야외농구장, 소공원 1개소)",정보없음,정보없음,정보없음,527,산책/휴식
서낙동강카누경기장,관광지,"부산광역시 강서구 조정경기장길 120, (강동동)",35.17013026,128.9068188,051-970-4125,부산광역시 강서구청,관리사무소+화장실+주차장,정보없음,"운동장 276272㎡(부지25252㎡, 조정호 251020㎡)+경기장시설(조정8레인, 카누9레인)",정보없음,정보없음,정보없음,20,기타
성륜사,관광지,전라남도 곡성군 옥과면 미술관로 287,35.29704978,127.1208706,061-363-7001,전라남도 곡성군청 문화체육과,주차장,정보없음,정보없음,정보없음,정보없음,정보없음,40,기타
관음사,관광지,전라남도 곡성군 오산면 성덕관음길 453,35.21469614,127.1653199,061-362-4433,전라남도 곡성군청 문화체육과,주차장,정보없음,정보없음,정보없음,정보없음,정보없음,12,기타
천태암,관광지,전라남도 곡성군 목사동면 대신로 381-336,35.09395689,127.2764599,061-363-2011,전라남도 곡성군청 문화체육과,주차장+화장실,정보없음,정보없음,정보없음,정보없음,정보없음,9,기타
용산재,관광지,전라남도 곡성군 목사동면 신숭겸로 226,35.13103091,127.3210133,061-363-1495,전라남도 곡성군청 문화체육과,주차장,정보없음,정보없음,정보없음,정보없음,정보없음,40,자연
대가야생활촌,관광지,경상북도 고령군 대가야읍 신남로 81,35.7118532,128.269244,054-950-7180,경상북도 고령군청,관리사무실 1동(매표소)+고객쉼터(1동)+수유실(2동)+공중화장실(3동)+문화관광안내소 및 복식체험존(1동)+연못 1개소+어린이 놀이터 1개소+물놀이시설 1개소+전시관 3개소,기와마을 11실+초가마을 9실,정보없음,정보없음,정보없음,정보없음,198,기타
아트빌리지(한옥마을),관광지,경기도 김포시 모담공원로 170,37.64510127,126.6946856,031-996-6836,김포문화재단,"화장실, 주차장",전통한옥숙박시설,전통놀이체험,"한옥마을,문화원,카페,공방,꽃집,",음식점,정보없음,142,전통
오전약수관광지,관광지,경상북도 봉화군 물야면 문수로 1541,37.01209531,128.7457209,054-679-6353,경상북도 봉화군청,관리사무소+화장실+상하수도시설+주차장,정보없음,정보없음,정보없음,관광식당,정보없음,500,기타
다덕약수관광지,관광지,경상북도 봉화군 봉성면 다덕로 873,36.9141215,128.8273232,054-679-6353,경상북도 봉화군청,관리사무소+화장실+주차장,정보없음,정보없음,정보없음,관광식당,정보없음,120,기타
금마관광지,관광지,전북특별자치도 익산시 금마면 고도9길 41-14,36.0015063,127.0570781,063-859-5827,전북특별자치도 익산시청,광장+안내시설+화장실+주차장+만남의장,황토숙박,놀이시설+전통 놀이마당,공연장+조경휴게소+공원+교양관+유적전시시설+꽃동산+마재배지+실개천+잔디광장+서동선화이야기동산+주말농장+농경체험장+상가,정보없음,정보없음,451,기타
미륵사지관광지,관광지,전북특별자치도 익산시 금마면 미륵사지로 362,36.01154232,127.0287139,063-859-5827,전북특별자치도 익산시청,주차장+광장+안내소+화장실,정보없음,정보없음,전통음식점+기념품점,정보없음,정보없음,150,기타
왕궁보석테마 관광지,관광지,전북특별자치도 익산시 왕궁면 호반로 8,35.99061279,127.1025486,063-859-5827,전북특별자치도 익산시청,주차장+광장+관광안내시설,정보없음,놀이터,보석박물관+화석전시관+공룡테마공원+피크닉장+기타+전시판매센터+식당+판매시설,정보없음,정보없음,236,기타
웅포관광지,관광지,전북특별자치도 익산시 웅포면 강변로 25,36.06581391,126.8754193,063-859-5827,전북특별자치도 익산시청,주차장+화장실+샤워장+취사장및음수대,정보없음,골프장+운동장+썰매장,문화체육센터+캠핑장+청소년수련시설+야영장+자연학습장+골프연습장+상가,정보없음,정보없음,100,기타
보은 삼년산성,관광지,충청북도 보은군 보은읍 성주1길 104,36.48993999,127.7417752,043-540-3407,충청북도 보은군청,화장실+해설사의 집,보은읍내 숙박 가능,보은 스포츠파크(야구장+수영장+축구장),농경문화관,해설사의 집(문화관광해설사 관광안내),정보없음,50,자연
보은 우당고택,관광지,충청북도 보은군 장안면 개안길 10-2,36.46857583,127.7906134,043-540-3392,충청북도 보은군청,화장실+해설사의 집,보은 우당고택 숙박가능,정보없음,서원계곡+서원리 소나무,보은 우당고택 안채+사랑채,정보없음,10,역사
속리산 법주사,관광지,충청북도 보은군 속리산면 법주사로 379,36.53993659,127.8306346,043-540-3392,충청북도 보은군청,화장실+해설사의 집,속리산 숲체험휴양마을 등 다수의 숙박시설 보유,세조길+오리숲길+야영장,법주사내 국보와 보물 보유,해설사의 집(문화관광해설사 관광안내),정보없음,150,자연
동학농민혁명기념공원,관광지,충청북도 보은군 보은읍 동학로 236-22,36.51567136,127.7591951,043-540-3392,충청북도 보은군청,화장실+해설사의 집,보은읍내 숙박 가능,보은 스포츠파크(야구장+수영장+축구장),솔향공원+속리산 법주사,해설사의 집(문화관광해설사 관광안내),정보없음,30,산책/휴식
에버랜드,관광지,경기도 용인시 처인구 포곡읍 에버랜드로 199,37.2940667,127.202128,031-324-2117,경기도 용인시 관광과,화장실+주차장+관광안내소,정보없음,정보없음,정보없음,정보없음,정보없음,10400,테마파크/놀이공원
한국민속촌,관광지,경기도 용인시 기흥구 민속촌로 90,37.25913189,127.1225431,031-324-2117,경기도 용인시 관광과,화장실+주차장+관광안내소,정보없음,정보없음,정보없음,정보없음,정보없음,2800,기타
장흥관광지,관광지,경기도 양주시 장흥면 권율로 193,37.73281632,126.9492504,031-8082-5664,경기도 양주시청,관광안내소+화장실+주차장,관광호텔,정보없음,캠핑장+미술관,정보없음,정보없음,502,기타
인천상륙작전기념관,관광지,인천광역시 연수구 청량로160번길 26,37.42070925,126.6531798,032-832-0915,인천광역시,주차장 + 화장실 + 상하수도시설 + 전기시설 + 통신시설,정보없음,정보없음,정보없음,정보없음,정보없음,50,문화
인천도시역사관,관광지,인천광역시 연수구 인천타워대로 238,37.39281227,126.6358879,032-850-6000,인천광역시,주차장 + 화장실 + 상하수도시설 + 전기시설 + 통신시설,정보없음,정보없음,정보없음,정보없음,정보없음,70,철도/교통 체험
가천박물관,관광지,인천광역시 연수구 청량로102번길 40-9,37.41847997,126.6576026,032-833-4747,가천문화재단,주차장 + 화장실 + 상하수도시설 + 전기시설 + 통신시설,정보없음,정보없음,정보없음,정보없음,정보없음,21,문화
춘천호반,관광지,강원특별자치도 춘천시 서면 경춘로 1401-25,37.825714,127.659368,033-245-2211,강원특별자치도 춘천시청,도로+관리사무소 2동+주차장+화장실 3동+오수처리장+배수지,방갈로+야영캠프장,낚시터+수영장,유원지+박물관,정보없음,정보없음,202,기타
만인의총,관광지,전북특별자치도 남원시 만인로 3,35.420404,127.377325,063-636-9321,문화재청,주차장,정보없음,정보없음,정보없음,정보없음,정보없음,50,기타
아담원,관광지,전북특별자치도 남원시 이백면 목가길 193,35.440571,127.476826,063-635-8342,아담원,주차장,정보없음,정보없음,커피숍,정보없음,정보없음,40,기타
남원관광지,관광지,전북특별자치도 남원시 양림길 12,35.402481,127.386137,063-620-8911,전북특별자치도 남원시청,관리사무소+주차장+화장실,켄싱턴리조트+춘향가호텔+남원파크+호텔춘향+리버모텔+드라마모텔+마음호텔,오리보트장+궁술장,남원랜드+국립국악원+동백연죽전시장+춘향테마파크+향토박물관+사랑의 광장,정보없음,정보없음,255,기타
서산동 시화골목,관광지,전라남도 목포시 해안로 127번길 14-2,34.78174519,126.3773176,061-270-8598,전라남도 목포시청,화장실+주차장+여행자쉼터,정보없음,정보없음,정보없음,여행자쉼터,정보없음,40,자연
연희네슈퍼(영화 1987 촬영지),관광지,전라남도 목포시 해안로 127번길 14-2,34.78174519,126.3773176,061-270-8598,전라남도 목포시청,화장실+주차장+여행자쉼터,정보없음,의상체험+셀프시잔관+화가의집,정보없음,여행자쉼터,정보없음,40,기타
춤추는 바다분수,관광지,전라남도 목포시 평화로 82,34.79666213,126.4337909,061-270-8580,전라남도 목포시청,화장실+주차장+관광안내소,정보없음,레이저쇼+워터스크린+사연이벤트,정보없음,정보없음,정보없음,80,자연
목포해상케이블카,관광지,전라남도 목포시 해양대학로 240,34.79940179,126.3700239,061-244-2600,전라남도 목포시청,화장실+주차장+매표소+관광안내소+기념품판매점+푸드코트,정보없음,VR체험관,안전홍보관,카페테리아+휴게실,정보없음,848,기타
삼학도크루즈,관광지,전라남도 목포시 삼학로 92번길 104,34.78101571,126.387931,061-245-3222,전라남도 목포시청,화장실+주차장+매표소+휴게실,정보없음,공연장+전망대+카페테리아+라운지,관광유람선,카페테리아,정보없음,100,기타
죽녹원,관광지,전라남도 담양군 담양읍 죽녹원로 119,35.32535666,126.9866155,061-380-2782,전라남도 담양군 산림정원과(대숲정원팀),관리사무소+공중화장실+전망대+정자,한옥체험장(12객실),어린이놀이터,조경 및 휴게시설+생태전시관(이이남아트센터),향교죽녹원+죽녹원식당,정보없음,70,기타
메타세쿼이아랜드,관광지,,35.32342607,127.001993,061-380-3161,전라남도 담양군 관광과(관광시설팀),메타세쿼이아길 L=2.1km+어린이프로방스+영화세트장+개구리생태공원+에코허브센터+호남기후변화체험관+매표소 3개소+검표소 6개소+쉼터 2개소+화장실 4개소,메종드프로방스+담양프로방스펜션,어린이프로방스+카페테리아+곤충박물관,조경 및 휴게시설,명가정+담양갈비창고,정보없음,2000,테마파크/놀이공원
소쇄원,관광지,전라남도 담양군 가사문학면 소쇄원길 17,35.18433903,127.0121793,061-380-2819,전라남도 담양군 문화체육과(문화재팀),관리사무소(매표소),정보없음,정보없음,조경 및 휴게시설,대가,정보없음,90,기타
한국대나무박물관,관광지,전라남도 담양군 담양읍 죽향문화로 35,35.30934367,126.9764088,061-380-2902,전라남도 담양군 공공시설사업소(한국대나무박물관팀),관리사무소(매표소),정보없음,정보없음,조경 및 휴게시설,박물관앞집,정보없음,150,문화
한국가사문학관,관광지,전라남도 담양군 가사문학면 가사문학로 877,35.18796216,127.0054858,061-380-2702,전라남도 담양군 문화체육과(한국가사문학관팀),한옥형 본관+매표소+화장실,정보없음,정보없음,기획전시실(갤러리)+자미정+세심정+토산품전시장+전통찻집,대가,정보없음,90,문화
슬로시티삼지내마을,관광지,전라남도 담양군 창평면 돌담길 56-24,35.23522516,127.0178498,061-380-3159,전라남도 담양군 관광과(슬로시티팀),관리사무소+공중화장실,돌담집 민박+한옥애+하심당,정보없음,정보없음,약초밥상,정보없음,300,전통
인천도호부청사,관광지,인천광역시 미추홀구 매소홀로 589,37.4393787,126.6868134,032-422-3492,인천광역시청,관리사무소+화장실+주차장,정보없음,정보없음,정보없음,정보없음,정보없음,50,기타
순천만국가정원,관광지,전라남도 순천시 국가정원1호길 47,34.92888588,127.4999591,061-749-2749,전라남도 순천시청 국가정원운영과,ATM+ 의료센터+ 체험학습센터+ 공중전화+ 물품대여소+ 물품보관소+ 분실물보관소+ 종합안내소+ 매표소+ 수유실+ 어린이보호소+ 노약자/장애인 보호소+ 대형버스기사쉼터,해당없음,관람차+스카이큐브+야생동물원+세계의상체험장+수상자전거체험+이미지유화체험,갯벌공연장+갯지렁이갤러리+갯지렁이도서관+한방체험센터,매점+식당+카페+기념품점,소회의실+컨퍼런스홀+입체영상관+,3530,산책/휴식
등명해변관광지,관광지,강원특별자치도 강릉시 강동면 정동등명길 2,37.70232906,129.0161926,033-640-5685,강원특별자치도 강릉시청,화장실+주차장,다우리조텔+민박,레일바이크,정동진시간박물관,정보없음,정보없음,120,기타
화순온천,관광지,전라남도 화순군 백아면 옥리길 14-7,35.1624699,127.0837781,061-379-3532,전라남도 화순군청,관리사무소+공중화장실+온천공+배수지+단지내도로 등,휴양콘도,아쿠아리움,온천장+종합유원시설,정보없음,정보없음,536,온천/스파
도곡온천,관광지,전라남도 화순군 도곡면 온천2길 44,35.02470562,126.903529,061-379-3532,전라남도 화순군청,관리사무소+공중화장실+온천공+배수지+단지내도로 등,일반숙박업+무인텔 등,정보없음,온천장+일반유원시설,정보없음,정보없음,462,온천/스파
운주사,관광지,전라남도 화순군 도암면 천태로 91-44,34.92906333,126.8825635,061-379-3532,전라남도 화순군청,야외공연장+하수처리장+잔디광장+화장실+주차장+사진문화관,정보없음,정보없음,정보없음,정보없음,정보없음,380,기타
삼척해수욕장,관광지,강원특별자치도 삼척시 수로부인길 453,37.47034344,129.1647024,033-570-3547,강원특별자치도 삼척시청,관리사무소+주차장+광장+화장실(2동)+샤워장,모텔+콘도미니엄 및 호텔,정보없음,정보없음,정보없음,정보없음,1400,계절별 명소
맹방관광지,관광지,강원특별자치도 삼척시 근덕면 상맹방길 30-80,37.39591618,129.2207941,033-570-3547,강원특별자치도 삼척시청,관리사무소+주차장+화장실(1동),휴양콘도미니엄+ 돔하우스+ 카라반,골프장,야영장,정보없음,정보없음,500,기타
장호관광지,관광지,강원특별자치도 삼척시 근덕면 삼척로 2154,37.2868038,129.3079336,033-570-3547,강원특별자치도 삼척시청,관리사무소+주차장,호텔,케이블카,야영장,정보없음,정보없음,800,기타
초당관광지,관광지,강원특별자치도 삼척시 근덕면 미근로 1629,37.37650408,129.2047561,033-570-3547,강원특별자치도 삼척시청,광장+주차장,게스트하우스+ 클럽하우스,골프장,정보없음,정보없음,정보없음,140,기타
송도오션파크,관광지,부산광역시 서구 송도해변로 36,35.0727183,129.0174477,051-240-4082,부산광역시 서구청,화장실+주차장,정보없음,운동시설+해안산책로+광장,정보없음,관리실,정보없음,88,테마파크/놀이공원
송도용궁구름다리,관광지,부산광역시 서구 암남동 620-53,35.0619212,129.021965,051-240-4084,부산광역시 서구청,화장실,정보없음,정보없음,정보없음,매표소,정보없음,0,기타
구곡폭포,관광지,강원특별자치도 춘천시 남산면 강촌구곡길 254,37.797033,127.615852,033-250-3668,강원특별자치도 춘천시청,관리사무소+주차장+공중화장실 4동+도로,휴양콘도미니엄+가족호텔,골프장+스키장,미술관+박물관,정보없음,전용숙소+연수시설,242,자연
연곡해변관광지,관광지,강원특별자치도 강릉시 연곡면 해안로 1282,37.85990446,128.8520583,033-640-5685,강원특별자치도 강릉시청,관리사무소+화장실+주차장+샤워장,"솔향기캠핑장(캠핑존 127면, 카라반존 8면, 자동차 캠핑존 12면)",정보없음,정보없음,정보없음,정보없음,120,기타
감귤박물관,관광지,제주특별자치도 서귀포시 효돈순환로 441(신효동),33.27159304,126.6074285,064-760-6400,제주특별자치도 서귀포시청,"관리사무소+화장실(실내 3, 야외 2)+주차장",정보없음,정보없음,정보없음,정보없음,정보없음,90,문화
명승 거창 수승대,관광지,경상남도 거창군 위천면 은하리길 2,35.760923,127.8336763,055-940-8532,경상남도 거창군청,관리사무소+취사장+화장실+관광안내소,여관,모험시설+간이수영장+썰매장,목재체험장+조경휴게지+구연서원+요수정+원각사+야외공연장+야영장+오토캠핑장,정보없음,자연취락용지+현수교,483,기타
가조온천,관광지,경상남도 거창군 가조면 온천길161,35.69875771,128.0231044,055-940-3443,경상남도 거창군청,관리사무소+주차장+공원,여관,테니스장+종합위락센터,온천장+공원,정보없음,녹지+하천,168,온천/스파
옥계해변관광지,관광지,강원특별자치도 강릉시 옥계면 금진솔밭길 104-29,37.62673237,129.0485254,033-640-5685,강원특별자치도 강릉시청,화장실+주차장+샤워장,정보없음,정보없음,한국여성수련원,정보없음,정보없음,180,기타
주문진해변관광지,관광지,강원특별자치도 강릉시 주문진읍 주문북로 222-30,37.91144947,128.8177557,033-640-5685,강원특별자치도 강릉시청,화장실+주차장+샤워장,베네키아호텔,정보없음,교직원연수원,정보없음,정보없음,250,기타
동의한방촌,관광지,경상북도 경산시 남산면 삼성현공원로38,35.79937497,128.800141,053-852-8866,경상북도 경산시청,체험시설,정보없음,정보없음,정보없음,정보없음,정보없음,40,기타
삼성현역사문화공원,관광지,경상북도 경산시 남산면 삼성현공원로59,35.80168834,128.7966117,053-804-7329,경상북도 경산시청,박물관+체험시설,정보없음,정보없음,정보없음,정보없음,정보없음,100,철도/교통 체험
자인계정숲,관광지,경상북도 경산시 자인면 계정길 68,35.81784608,128.8189958,053-856-5765,경상북도 경산시청,체험시설,정보없음,정보없음,정보없음,정보없음,정보없음,20,자연
화암관광지,관광지,강원특별자치도 정선군 화암면 화암동굴길 12-13,37.35092374,128.7896216,033-560-2053,강원특별자치도 정선군청,도로주차장관리사무소+화장실 등,정보없음,다목적광장 등,향토박물관+금광촌 등,정보없음,정보없음,500,기타
아우라지 관광지,관광지,강원특별자치도 정선군 여량면 아우라지길 69,37.47574407,128.7243663,033-560-2053,강원특별자치도 정선군청,도로주차장관리사무소+화장실 등,정보없음,다목적운동장 등,아리랑전수관+달오름공원 등,정보없음,정보없음,100,기타
하회관광지,관광지,경상북도 안동시 풍천면 전서로 206,36.5489594,128.5274931,054-840-3797,경상북도 안동시청,관리사무소+주차장+매표소+화장실 등,정보없음,정보없음,정보없음,정보없음,정보없음,500,기타
안동문화관광지,관광단지,경상북도 안동시 관광단지로 346-30,36.5695076,128.7786154,054-840-5817,경상북도 안동시청,주차장+관리사무소+수변공원 등,정보없음,정보없음,정보없음,정보없음,정보없음,458,기타
스포원파크,관광지,부산광역시 금정구 체육공원로399번길 324,35.28912108,129.1070434,051-519-4081,부산광역시 금정구 문화관광과,주차장+화장실,정보없음,정보없음,정보없음,정보없음,정보없음,100,테마파크/놀이공원
한국이슬람부산성원,관광지,부산광역시 금정구 금단로 113-13,35.25998626,129.0922564,051-519-4081,부산광역시 금정구 문화관광과,화장실,정보없음,정보없음,정보없음,정보없음,정보없음,100,자연
요산문학관,관광지,부산광역시 금정구 팔송로 60-6,35.27236562,129.085732,051-519-4081,부산광역시 금정구 문화관광과,화장실+전시실+자료실,정보없음,정보없음,정보없음,정보없음,정보없음,100,문화
오륜대한국순교자박물관,관광지,부산광역시 금정구 오륜대로 106-1,35.24570172,129.1009016,051-519-4081,부산광역시 금정구 문화관광과,휴게소+화장실+전시실,정보없음,정보없음,정보없음,정보없음,정보없음,100,문화
부산대젊음의거리,관광지,부산광역시 금정구 장전온천천로 51,35.229587,129.0888177,051-519-4081,부산광역시 금정구 문화관광과,문화나눔터+어울마당,정보없음,정보없음,정보없음,정보없음,정보없음,100,자연
금정산성마을,관광지,부산광역시 금정구 산성로 452,35.250339,129.0561338,051-519-4081,부산광역시 금정구 문화관광과,미술관+문화체험촌,정보없음,정보없음,정보없음,정보없음,정보없음,100,전통
도림사,관광지,전라남도 곡성군 곡성읍 도림로 175,35.26727743,127.2575047,061-362-2727,전라남도 곡성군청 문화체육과,주차장+화장실,정보없음,정보없음,정보없음,정보없음,정보없음,36,기타
설악한화리조트,관광단지,강원특별자치도 속초시 미시령로 2983번길 111,38.21030036,128.5287214,033-639-2544,강원특별자치도 속초시청,주차장+배수지+변전소+도로,휴양콘도미니엄4,플라잉폭스+골프장,온천장+레이크가든,정보없음,정보없음,2000,기타
공릉관광지,관광지,경기도 파주시 조리읍 장곡로 218,37.74984994,126.8335561,031-945-2250,㈜성원레저,관리사무소+화장실(4동)+주차장,캠핑장,유원시설,캠핑장,정보없음,정보없음,300,기타
임진각관광지,관광지,경기도 파주시 문산읍 임진각로 177,37.88953876,126.7401859,031-950-1962,파주도시관광공사,관리사무소+화장실+오수처리시설+기반시설(주차장+도로+전기공급시설),정보없음,평화랜드,기념공원+ 망배단+ 비트뮤지엄+ 평화누리+ 종합관광센터+ 평화누리캠핑장,정보없음,정보없음,2091,기타
천안종합휴양관광지,관광지,충청남도 천안시 동남구 성남면 종합휴양지로 200,36.75731215,127.2240961,041-906-7000,소노벨 천안,주차장,콘도미니엄,워터파크,미술관+공연장,식당,정보없음,500,기타
태조산관광지,관광지,충청남도 천안시 동남구 태조산길 261,36.82207666,127.1889559,041-550-2520,천안시시설관리공단,주차장,정보없음,정보없음,조각공원,정보없음,정보없음,300,자연
회산백련지,관광지,전라남도 무안군 일로읍 백련로 333,34.86008886,126.5298981,061-450-5863,전라남도 무안군 관광과,화장실+주차장+전기시설+통신시설+상하수도시설+매표소,정보없음,지압산책로,오토캠핑장,공연장,정보없음,563,자연
인천가스과학관,관광지,인천광역시 연수구 인천신항대로960,37.35281836,126.6121219,032-822-4492,한국가스공사,주차장 + 화장실 + 상하수도시설 + 전기시설 + 통신시설,정보없음,정보없음,정보없음,정보없음,정보없음,100,과학/천문
광덕계곡관광지,관광지,강원특별자치도 화천군 사내면 포화로 582,38.07630808,127.4817356,033-440-2562,강원특별자치도 화천군청,관리사무소2개소+일반광장1개소+공중화장실7개소+주차장13개소+오수처리장1개소,정보없음,정보없음,정보없음,정보없음,정보없음,200,자연
용대관광지,관광지,강원특별자치도 인제군 북면 십이선녀탕길 16,38.18568475,128.3061965,033-460-4312,강원특별자치도 인제군청,화장실+주차장,펜션+야영장,정보없음,조경휴게지+산림욕장,음식점,정보없음,300,기타
산정호수,관광지,경기도 포천시 영북면 산정호수로411번길 5 일원,38.065669,127.315722,031-538-3363,경기도 포천시청 관광사업과,관리사무실+화장실+주차장,정보없음,정보없음,정보없음,정보없음,정보없음,500,자연
백운계곡,관광지,경기도 포천시 이동면 포화로 236-24 일원,38.072165,127.409889,031-538-3363,경기도 포천시청 관광사업과,관리사무실+화장실+주차장,정보없음,정보없음,정보없음,정보없음,정보없음,100,자연
용문산 관광지,관광지,경기도 양평군 용문면 용문산로 641,37.54529617,127.583066,031-770-2491,경기도 양평군청,관리사무소+관광안내소+ 주차장+ 공중화장실,콘도+ 펜션,청춘뮤지엄,야영장+ 친환경농업박물관,야외공연장,정보없음,807,자연
두물머리,관광지,경기도 양평군 양서면 두물머리길 145,37.53362262,127.3174715,031-770-2568,경기도 양평군청,관리사무소+주차장+ 공중화장실,정보없음,두물머리생태학교,정보없음,정보없음,정보없음,567,기타
세미원,관광지,경기도 양평군 양서면 양수로 93,37.54093866,127.3239608,031-770-2568,경기도 양평군청,관리사무소+주차장+ 공중화장실,정보없음,정보없음,연꽃박물관,정보없음,정보없음,567,기타
쉬자파크,관광지,경기도 양평군 양평읍 쉬자파크길 193,37.51122354,127.5331978,031-770-2417,경기도 양평군청,관리사무소+주차장+ 공중화장실,펜션,암벽등반+ 놀이터,체험관+ 치유센터,정보없음,정보없음,85,테마파크/놀이공원
기독교선교100주년기념관,관광지,전라남도 광양시 진상면 성지로 399,35.04305027,127.6604508,061-772-7441,광양 기독교 선교 100주년 기념관,주차장+화장실,정보없음,정보없음,대예배실,레스토랑,정보없음,1000,문화
섬진강 망덕포구,관광지,전라남도 광양시 진월면 망덕길 171,34.96787088,127.7579265,061-772-4066,청매실농원,주차장+화장실,정보없음,정보없음,정보없음,정보없음,정보없음,1000,기타
춘장대,관광지,충청남도 서천군 서면 춘장대길 20,36.16334922,126.5243355,041-950-4091,충청남도 서천군청,종합안내소+주차장+화장실+취사장,정보없음,정보없음,정보없음,정보없음,정보없음,300,기타
박경리기념관,관광지,경상남도 통영시 산양읍 산양중앙로 173,34.802301,128.4035792,055-650-2541,경상남도 통영시청,화장실,정보없음,정보없음,정보없음,세미나실+회의실,정보없음,23,문화
해저터널,관광지,경상남도 통영시 당동 1-3,34.83609021,128.411698,055-650-0514,경상남도 통영시청,관광안내소,정보없음,정보없음,정보없음,정보없음,정보없음,0,기타
장사도해상공원,관광지,경상남도 통영시 한산면 장사도길 55,34.71373747,128.5588706,055-650-0514,경상남도 통영시청,화장실+카페+음식점+휴게공간,정보없음,정보없음,공원,정보없음,정보없음,0,산책/휴식
통영시립박물관,관광지,경상남도 통영시 중앙로 65,34.84075153,128.4167887,055-650-4515,경상남도 통영시청,화장실+카페+음식점+휴게공간,정보없음,정보없음,전시실,세미나실+영화관람실,정보없음,32,문화
삼도수군통제영,관광지,경상남도 통영시 세병로 27,34.84715495,128.423489,055-645-3805,경상남도 통영시 통영관광개발공사,관광안내소+화장실,정보없음,정보없음,정보없음,정보없음,정보없음,140,기타
운일암반일암,관광지,전북특별자치도 진안군 주천면 동상주천로 1924,35.97596963,127.408748,063-430-2554,전북특별자치도 진안군,도로+관리사무소+공중화장실(7개소)+오수처리장,정보없음,정보없음,야영장 2개소,정보없음,정보없음,500,기타
마이산도립공원 일원,관광지,전북특별자치도 진안군 마령면 마이산남로 182,35.75700898,127.3938329,063-430-8752,전북특별자치도 진안군,화장실(6개소)+파고라+NFC(8개소),정보없음,정보없음,가위박물관+명인명품관+홍삼스파+산약초타운+역사박물관+마이돈농촌테마공원,정보없음,정보없음,862,자연
용담호및주변시설,관광지,전북특별자치도 진안군 안천면 안용로 793,35.94593497,127.5256742,063-430-4263,한국수자원공사,휴게소 및 망향의동산(6개소)+화장실(5개소),정보없음,정보없음,용담댐물문화관+용담호사진관+용담가족테마공원+용담호자연생테습지공원,정보없음,정보없음,100,기타
운장산자연휴양림,관광지,전북특별자치도 진안군 정천면 휴향림길 77,35.89924607,127.4211096,063-432-1193,국립자연휴양관리사무소,도로+관리사무소+공중화장실(3개소)+오수처리장,정보없음,정보없음,야영장 20개,정보없음,정보없음,200,자연
데미샘자연휴양림,관광지,전북특별자치도 진안군 백운면 데미샘1길 172,35.6569938,127.4610402,063-290-6991,전북특별자치도,도로+관리사무소+공중화장실(2개소)+오수처리장,정보없음,정보없음,휴양관1개소,정보없음,정보없음,100,자연
진안고원치유의숲,관광지,전북특별자치도 진안군 정천면 봉학로 171-22,35.87516093,127.4177407,063-433-1666,전북권 환경성질환치유센터,도로+관리사무소+공중화장실3개소+오수처리장,정보없음,정보없음,작은도서관+옥녀폭포 산책길,정보없음,정보없음,100,자연
가위박물관,관광지,전북특별자치도 진안군 진안읍 마이산로 258,35.76592077,127.4150023,063-430-8745,전북특별자치도 진안군,전시실+수장고+사무실+뮤지업숍,정보없음,정보없음,가위박물관+명인명품관+홍삼스파+산약초타운+역사박물관+마이돈농촌테마공원,정보없음,정보없음,100,문화
은파관광지,관광지,전북특별자치도 군산시 은파순환길9 (나운동),35.95536227,126.6890748,063-454-4895,전북특별자치도 군산시청,관리사무소+화장실+주차장+잔디관장,관광호텔,다목적운동장+체력단련장,숲체험장+휴게쉼터+전망휴게쉼터+생태습지+억새원+편백나무쉼터+숲속산책쉼터,야외공연장,없음,982,기타
금강호관광지,관광지,전북특별자치도 군산시 성산면 철새로 120,36.01987856,126.7653058,063-454-3344,전북특별자치도 군산시청,주차장+광장+화장실+관리사무소,관광호텔,유희시설+테니스장,어린이공원+체험학습장+철새조망대,야외무대,없음,1055,기타
꽃보라동산,관광지,,35.88935018,128.601059,053-665-2344,대구광역시 북구청,화장실+벤치+벚꽃길,정보없음,정보없음,정보없음,정보없음,정보없음,50,자연
해달별천문대,관광지,전라남도 광양시 봉강면 하조길 91-20,35.07478024,127.5540516,061-762-5393,광양 해달별천문대,화장실+천문대,정보없음,정보없음,정보없음,정보없음,정보없음,1000,과학/천문
백운산자연휴양림,관광지,전라남도 광양시 옥룡면 백계로 33,35.05164423,127.5985292,061-797-4705,전라남도 광양시 휴양림사업소,화장실+주차장+매표소+매점,캐빈하우스 20+ 카라반 3,수영장+황톳길+둘레길,정보없음,정보없음,관리사무소,1000,자연
광양 옥룡사지,관광지,전라남도 광양시 옥룡면 추산리 산 35-1,35.04701721,127.6085305,061-797-2418,전라남도 광양시청 문화예술과,주차장+화장실,정보없음,정보없음,정보없음,정보없음,정보없음,1000,기타
국사봉랜드,관광지,전라남도 광양시 옥곡면 대치로 433,35.00642478,127.6525399,061-794-8724,광양 국사봉랜드,화장실+주차장+매점+매표소,객실 16+ 카라반 3,수영장+4계절썰매장+실내행사장+족구장+트램폴린,정보없음,정보없음,정보없음,1000,테마파크/놀이공원
산청중산관광지,관광지,경상남도 산청군 시천면 지리산대로 525,35.293297,127.7549317,055-970-7222,경상남도 산청군청,공중화장실(3개소)+주차장(2개소)+보건진료소+우체국,펜션,체력단련장,지리산빨치산토벌전시관+트릭아트체험관,관광식당,정보없음,200,자연
산청금서관광지,관광지,경상남도 산청군 금서면 친환경로 1715,35.394237,127.847052,055-970-7222,경상남도 산청군청,주차장(1개소),휴양콘도미니엄,수영장+당구장,리조트,관광식당,정보없음,100,자연
신지명사십리해수욕장,관광지,전라남도 완도군 신지면 명사십리길 85-105,34.327329,126.8088597,061-550-5427,전라남도 완도군청 관광과,화장실+주차장+관광안내소,정보없음,정보없음,정보없음,정보없음,정보없음,100,계절별 명소
해조류센터,관광지,전라남도 완도군 완도읍 해변공원로 84,34.320789,126.748793,061-550-5872,전라남도 완도군청 시설관리사업소,화장실+주차장+관광안내소,정보없음,정보없음,정보없음,정보없음,정보없음,100,기타
예당관광지,관광지,충청남도 예산군 응봉면 예당관광로 161,36.63801252,126.799434,041-339-8282,충청남도 예산군청,관리사무소+화장실(6동)+주차장,정보없음,정보없음,정보없음,정보없음,정보없음,185,기타
덕산온천관광단지,관광단지,충청남도 예산군 덕산면 온천단지2로 11,36.69075649,126.659328,041-339-7303,충청남도 예산군청,관광안내소+화장실(2동)+주차장,리솜스파캐슬,정보없음,정보없음,정보없음,정보없음,350,자연
보수동책방골목,관광지,부산광역시 중구 대청로 57-1,35.10323904,129.0263248,051-743-7650,부산광역시 중구,화장실,정보없음,정보없음,보수동책방골목 문화관,정보없음,정보없음,0,기타
용두산공원,관광지,부산광역시 중구 용두산길 37-55,35.1009305,129.0324434,051-860-7820,부산 시설공단,화장실,정보없음,정보없음,정보없음,정보없음,정보없음,0,자연
광복로,관광지,부산광역시 중구 광복중앙로 1,35.09947039,129.0311659,051-600-4084,부산광역시 중구,화장실+공영주차장,정보없음,정보없음,정보없음,정보없음,창선동 관광안내소,0,기타
부산영화체험박물관,관광지,부산광역시 중구 대청로126번길 12,35.10169342,129.033594,051-715-4200,부산 영화체험 박물관,화장실+공영주차장,정보없음,정보없음,정보없음,정보없음,정보없음,0,문화
운암지수변공원,관광지,,35.93241418,128.5674979,053-665-2344,대구광역시 북구청,화장실+데크로드+분수대+생활공원+유아숲체험원,정보없음,정보없음,정보없음,정보없음,정보없음,50,산책/휴식
팔달대교 야경,관광지,,35.89629048,128.5491628,053-665-2344,대구광역시 북구청,조명시설,정보없음,정보없음,정보없음,정보없음,정보없음,0,야경/전망대
금호강하중도,관광지,,35.90019471,128.5595886,053-665-2344,대구광역시 북구청,화장실+주차장,정보없음,정보없음,정보없음,정보없음,정보없음,2000,기타
경북대학교 캠퍼스,관광지,대구광역시 북구 대학로80,35.88909849,128.6143217,053-665-2344,대구광역시 북구청,화장실+주차장+휴게시설,정보없음,정보없음,정보없음,정보없음,정보없음,5000,체험
함지공원,관광지,대구광역시 북구 동암로38길 9,35.9424608,128.570482,053-665-2344,대구광역시 북구청,화장실+주차장+음악공원시설+물놀이시설+휴게시설,정보없음,정보없음,정보없음,정보없음,정보없음,100,산책/휴식
구암서원,관광지,대구광역시 북구 연암공원로17길 20,35.89881592,128.5989989,053-665-2344,대구광역시 북구청,화장실+주차장+관광안내시설+휴게시설,정보없음,정보없음,정보없음,정보없음,정보없음,30,기타
침산정,관광지,대구광역시 북구 침산남로9길 118,35.897221,128.5848591,053-665-2344,대구광역시 북구청,화장실+주차장+휴게시설,정보없음,정보없음,정보없음,정보없음,정보없음,50,자연
달성토성마을,관광지,대구광역시 서구 국채보상로 83길 21 (비산동) 일대,35.87331563,128.5753765,053-663-2181,대구광역시 서구청,행복한 날뫼골 공방,정보없음,정보없음,채비천연염색공방+전양순자수박물관+마을도서관 햇빛따라+퍼팩토리소극장,달성토성마을 다락방,정보없음,26,전통
신라불교초전지,관광지,경상북도 구미시 도개면 도개다곡길 389-46,36.29090918,128.3633378,054-480-2140,구미도시공사,화장실+주차장,전통가옥체험관+생활관,정보없음,기념관+전시가옥+사찰음식체험관+교육관+아도화상 동상,정보없음,정보없음,59,기타
마니산 국민관광지,관광지,인천광역시 강화군 화도면 마니산로675번길 18,37.63245827,126.4237957,032-930-7068,인천광역시 강화군 시설관리공단,관리사무소(2동)+분리수거장(2동)+창고(2동)+석교(7동)+목교(3동)+담수보(6동)+배수지(2동)+화장실(12동)+주차장(11개소)+매표소+정수장+물탱크(5동)+정화시설+샤워실,정보없음,정보없음,야외공연장+단군놀이터+야외취사장(7동)+전망대,정보없음,정보없음,1293,자연
경산상대온천,관광지,경상북도 경산시 남산면 상대로116길 18,35.78037855,128.7922287,053-810-5363,경상북도 경산시청,상대온천웨딩홀+커피,관광호텔,정보없음,교육문화회관,정보없음,정보없음,100,자연
천진암,관광지,경기도 광주시 퇴촌면 천진암로 1203,37.42357313,127.3883989,031-764-5953,재단법인 천주교수원교구유지재단,주차장+화장실,정보없음,정보없음,천주교박물관,정보없음,해당없음,100,기타
경기도자박물관,관광지,경기도 광주시 곤지암읍 경충대로 727,37.35028421,127.3347877,031-799-1500,한국도자재단,주차장+화장실+공원,정보없음,정보없음,야외조각공원+장작가마+다래시연장 등,정보없음,해당없음,482,문화
경안천습지생태공원,관광지,경기도 광주시 퇴촌면 산수로 1159,37.45920014,127.3051169,031-760-3763,경기도 광주시청,주차장+화장실,정보없음,정보없음,조류관찰+자연학습의 장,정보없음,해당없음,115,자연
팔당물안개공원,관광지,경기도 광주시 남종면 산수로 1897,37.50956344,127.3174613,031-760-4483,경기도 광주시청,주차장+화장실+공원,정보없음,정보없음,시민의 숲+희망의 숲+코스모스길 등,정보없음,해당없음,300,산책/휴식
중대물빛공원,관광지,경기도 광주시 순암로 307,37.40272258,127.218054,031-760-3763,경기도 광주시청,주차장+화장실+공원,정보없음,정보없음,장미터널+연꽃로드+아치목교 등,정보없음,해당없음,100,산책/휴식
대둔산도립공원,관광지,전라북도 완주군 운주면 대둔산공원길 23,36.11708032,127.3328815,063-290-2742,전라북도 완주군청,관리사무소+케이블카,관광호텔,정보없음,관리사무소+케이블카,관리사무소+케이블카,정보없음,300,자연
방화동가족휴가촌,관광지,전북특별자치도 장수군 번암면 방화동로 778,35.59064179,127.5268761,063-350-2475,전북특별자치도 장수군 산림과,관리사무실+주차장+화장실+샤워실+취사장,가족휴양동 20실+다문화체험동 5실,족구장 1식+체육광장 1식,목재문화체험장+야영장+인공폭포,정보없음,정보없음,200,아이와 함께
고래불관광지,관광지,경상북도 영덕군 병곡면 고래불로 68,36.57151713,129.4190153,054-730-6513,경상북도 영덕군청,관리사무소(2동)+주차장+화장실(6동)+샤워장(5동)+하계휴양소+취사동(4동),정보없음,비치발리볼경기장+자전거대여점+풋살구장+체력단련시설,야영장+연수원,상가(2동),정보없음,1000,기타
장사해수욕장관광지,관광지,경상북도 영덕군 남정면 동해대로 3592,36.2824187,129.3755938,054-730-6513,경상북도 영덕군청,관리사무소+주차장+화장실(3동)+샤워장(2동)+광장,방갈로(20동),미니축구장,전승기념마당,상가(2동),정보없음,297,계절별 명소
양천향교,관광지,서울특별시 강서구 양천로47나길 53,37.572863,126.839905,02-2659-0076,서울특별시 향교재단,화장실,정보없음,정보없음,정보없음,정보없음,정보없음,0,기타
약사사,관광지,서울특별시 강서구 금낭화로17길 261,37.58312625,126.8050072,02-2664-2550,약사사,화장실+주차장,정보없음,정보없음,정보없음,정보없음,정보없음,50,기타
서울양천고성지,관광지,서울특별시 강서구 양천로47나길 52-54,37.57425363,126.8413319,02-2600-6456,서울특별시 강서구청,전기시설,정보없음,정보없음,정보없음,정보없음,정보없음,0,기타
허가바위,관광지,서울특별시 강서구 허준로5길 15,37.56983571,126.8500301,02-2600-6456,서울특별시 강서구청,전기시설,정보없음,정보없음,정보없음,정보없음,정보없음,0,기타
허준근린공원,관광지,서울특별시 강서구 허준로5길 42,37.56759867,126.8537291,02-2600-4186,서울특별시 강서구청,화장실,정보없음,정보없음,정보없음,정보없음,정보없음,0,산책/휴식
궁산땅굴역사전시관,관광지,서울특별시 강서구 양천로49길 106,37.57266746,126.8383649,02-2600-6081,서울특별시 강서구청,전기시설,정보없음,정보없음,정보없음,정보없음,정보없음,0,자연
안성남사당공연장,관광지,경기도 안성시 보개면 남사당로 198-2,37.03181804,127.310053,031-678-2512,경기도 안성시청,남사당카페,정보없음,정보없음,정보없음,정보없음,남사당전수관,8,기타
안성맞춤랜드,관광지,경기도 안성시 보개면 남사당로 198,37.0328236,127.3078038,031-678-2486,경기도 안성시청,화장실+주차장,정보없음,운동기구3종+ 잔디광장,잔디광장+수변공원+야생화단지+미니식물원 등,랜드사무실 1동,정보없음,850,테마파크/놀이공원
안성맞춤캠핑장,관광지,경기도 안성시 보개면 남사당로 196-31,37.03129806,127.3091429,031-678-2487,경기도 안성시청,화장실+주차장,캠핑장 71면+카라반 7대+ 글램핑 10동,정보없음,정보없음,캠핑장 사무실 1동,정보없음,60,야외활동
안성시사계절썰매장,관광지,경기도 안성시 보개면 남사당로 198-3,37.0312917,127.3114616,031-678-2674,경기도 안성시청,관리동+ 매점,정보없음,슬로프2면+ 수경시설,정보없음,관리동,정보없음,50,기타
안성맞춤천문과학관,관광지,경기도 안성시 보개면 남사당로 198-9,37.03291074,127.3125372,031-675-6978,경기도 안성시청,회의실+ 전시장,정보없음,정보없음,천체투영관+ 관측실2,천문과학관 로비,정보없음,6,과학/천문
안성맞춤공예문화센터,관광지,경기도 안성시 보개면 남사당로 198-11,37.03497838,127.3108743,031-678-2673,경기도 안성시청,화장실+주차장,정보없음,정보없음,전시장,공예문화센터 로비,정보없음,4,기타
안성맞춤박물관,관광지,경기도 안성시 대덕면 서동대로 4726-15,37.011318,127.228354,031-678-2506,경기도 안성시청,휴식공간+ 자전거보관대,정보없음,정보없음,정보없음,정보없음,정보없음,60,문화
안성3.1운동기념관,관광지,경기도 안성시 원곡면 만세로 868,37.06278592,127.1752942,031-678-2476,경기도 안성시청,휠체어+ 유모차 보관함+체험교육실,정보없음,정보없음,정보없음,정보없음,정보없음,57,문화
박두진문학관,관광지,경기도 안성시 보개면 남사당로 198-11,37.03497856,127.3108743,031-678-2469,경기도 안성시청,북카페+ 다목적실+ 전망대 쉼터,정보없음,정보없음,정보없음,정보없음,정보없음,10,문화
회동수원지,관광지,부산광역시 금정구 오륜대로258,35.24707332,129.115753,051-519-4081,부산광역시 금정구 문화관광과,정자+수변데크,정보없음,정보없음,정보없음,정보없음,정보없음,20,기타
서동미로시장,관광지,부산광역시 금정구 서동로141번길 16,35.21586987,129.102466,051-519-4081,부산광역시 금정구 문화관광과,서동예술창작공간+쉼터+작은도서관+하늘정원,정보없음,정보없음,정보없음,정보없음,정보없음,20,시장/쇼핑
덕포진교육박물관,관광지,경기도 김포시 대곶면 덕포진로103번길 90,37.6506248,126.5387862,031-980-2483,경기도 김포시청,대곶면사무소,약암홍염천 관광호텔,정보없음,정보없음,정보없음,정보없음,10,문화
다도박물관,관광지,경기도 김포시 월곶면 애기봉로275번길 187-49,37.7375035,126.5744366,031-998-1000,경기도 김포시청,월곶면사무소,약암홍염천 관광호텔,정보없음,정보없음,정보없음,정보없음,50,문화
김포국제조각공원,관광지,경기도 김포시 월곶면 용강로13번길 38,37.72080378,126.552204,031-984-5167,김포문화재단,월곶면사무소,"문수산 관광 농원 펜션, 문수골힐링캠핑장,문수관광농원, 조강276(평화의 길 거점센터)",정보없음,문수산삼림욕장,정보없음,정보없음,221,산책/휴식
경천대관광지,관광지,경상북도 상주시 사벌국면 경천로 652,36.45722382,128.2478641,054-537-7128,경상북도 상주시청,관리사무소+주차장+화장실(5동)+관광안내센터,경천대펜션,눈썰매장+밀리터리 테마파크,종합유원시설,관광식당,정보없음,213,기타
회상나루관광지,관광지,경상북도 상주시 중동면 갱다불길 97,36.44187503,128.2657793,054-537-7125,경상북도 상주시청,주차장+화장실+관광안내센터,객주촌(펜션),상주보 수상레저센터,문학관+학(철새)전망대,객주촌(숙박시설)+주막촌(식당),정보없음,159,기타
용아생가,관광지,광주광역시 광산구 소촌로46번길 24,35.14942906,126.7951682,062-960-3827,광주광역시 광산구청,화장실,정보없음,정보없음,정보없음,정보없음,정보없음,0,역사
호가정,관광지,광주광역시 광산구 동곡분토길 195,35.08243286,126.7871342,062-960-3827,광주광역시 광산구청,화장실,정보없음,정보없음,정보없음,정보없음,정보없음,2,기타
신창동 유적체험학습관,관광지,광주광역시 광산구 북문대로 396-2,35.19348956,126.8504632,062-960-3827,광주광역시 문화기반조성과,화장실(2)+직원동+주차장,정보없음,정보없음,정보없음,정보없음,정보없음,23,역사
남산&N서울타워,관광지,서울특별시 용산구 남산공원길 105,37.55112257,126.9878678,02-2199-7240,서울특별시 용산구청 문화진흥과,화장실+주차장+관광안내소+수유실,정보없음,정보없음,전망대,푸드코트+카페,정보없음,0,자연
노들섬,관광지,서울특별시 용산구 양녕로 445,37.51766383,126.9580365,02-749-4500,인터파크노들씨어터,화장실+주차장,정보없음,정보없음,정보없음,정보없음,정보없음,30,산책/휴식
진남관,관광지,전라남도 여수시 동문로 11,34.7413383,127.7365704,061-659-5710,전라남도 여수시청,화장실,정보없음,정보없음,임란유물전시관,관광안내소,관리사무소,102,기타
향일암,관광지,전라남도 여수시 돌산읍 향일암로 60,34.59379448,127.8029861,061-644-0309,대한불교조계종,화장실,정보없음,정보없음,정보없음,관광안내소,매표소+종무소,109,기타
여수해상케이블카,관광지,전라남도 여수시 자산4길 39,34.7402223,127.7529197,061-664-7301,여수해상케이블카 주식회사,화장실,정보없음,판타지아트뮤지엄,공연장,매표소,사무소,244,기타
여수세계박람회장,관광지,전라남도 여수시 박람회길 1,34.75218956,127.7465005,1577-2012,2012여수세계박람회재단,화장실,소노캄+베네치아호텔+유탑마리나리조트+신라스테이,아쿠아플라넷+빅오쇼,엑스포아트갤러리+엑스포기념관,안내소,사무실,1909,기타
여수해양공원,관광지,전라남도 여수시 하멜로 96,34.73676698,127.7484079,061-659-3962,전라남도 여수시청,화장실,정보없음,정보없음,공연장+놀이터,관광안내소,관리사무소,214,산책/휴식
예술랜드리조트,관광지,"전라남도 여수시 돌산읍 무술목길 142-1,",34.69510702,127.7769452,1522-2600,(주)여수예술랜드,화장실+푸드코트,리조트,인피니티풀+트릭아트뮤지엄+조각공원,정보없음,안내데스크,안내데스크,0,문화
여수이순신대교,관광지,전라남도 여수시 묘도7길 110,34.88923653,127.704929,061-807-2020,국토교통부,화장실,정보없음,정보없음,전망대,안내데스크,사무실,0,기타
용산공예관,관광지,서울특별시 용산구 이태원로 274,37.539005,127.0020755,02-2199-6180,용산공예관,승강기+화장실+주차장,정보없음,정보없음,전시관,공연장,직원휴게실,20,자연
서빙고동 부군당,관광지,서울특별시 용산구 서빙고로59길 3-6,37.520454,126.993114,02-2199-7240,서울특별시 용산구청 문화진흥과,화장실,정보없음,정보없음,정보없음,정보없음,정보없음,0,기타
동빙고 부군당,관광지,서울특별시 용산구 서빙고로73길 24-27,37.52214299,126.996145,02-2199-7240,서울특별시 용산구청 문화진흥과,화장실,정보없음,정보없음,정보없음,정보없음,정보없음,0,기타
용산기지 옛 미군장교숙소(현 용산공원),관광지,서울특별시 용산구 서빙고로 221,37.52300977,126.989165,070-4224-1708,국토교통부 용산공원,관광안내소+화장실,정보없음,어린이누리마당+어린이실내놀이터,전시관,누리방카페,직원휴게실,60,자연
김유신 장군 사당,관광지,서울특별시 용산구 서빙고로91길 28-15,37.523941,127.000688,02-2199-7240,서울특별시 용산구청 문화진흥과,화장실,정보없음,정보없음,정보없음,정보없음,정보없음,10,기타
보광동 무후묘,관광지,서울특별시 용산구 장문로15나길 6,37.527058,126.9973443,02-2199-7240,서울특별시 용산구청 문화진흥과,화장실,정보없음,정보없음,정보없음,정보없음,정보없음,0,기타
새남터 순교성지,관광지,서울특별시 용산구 이촌로 80-8,37.52512658,126.9570717,070-8672-0327,새남터 성당,화장실+주차장+관광안내소,정보없음,정보없음,정보없음,정보없음,정보없음,20,기타
좌천동굴,관광지,부산광역시 동구 고관로185번길 1,35.13325838,129.0522683,051-440-4711,부산광역시 동구청 문화관광과,전기시설,정보없음,정보없음,정보없음,정보없음,정보없음,0,자연
만화카페,관광지,부산광역시 동구 성북로 31,35.13675143,129.0496096,051-440-4711,부산광역시 동구청 문화관광과,화장실+주차장,정보없음,정보없음,정보없음,정보없음,정보없음,1,카페/디저트
명란브랜드연구소,관광지,부산광역시 동구 영초윗길 22-1,35.117117,129.035016,051-440-4714,부산광역시 동구청 문화관광과,화장실,정보없음,정보없음,정보없음,정보없음,정보없음,0,테마파크/놀이공원
속초해수욕장,관광지,강원특별자치도 속초시 해오름로 186,38.19014884,128.6035305,033-639-2544,강원특별자치도 속초시청,관리사무소+샤워탈의장+공중화장실+도로+주차장,리조트단지(호텔/콘도),해수풀장,해양관+휴게소+전망대+테마거리+조경휴양공간+다목적잔디광장,정보없음,정보없음,550,계절별 명소
척산온천,관광지,강원특별자치도 속초시 관광로 327,38.19020313,128.5407019,033-639-2544,강원특별자치도 속초시청,도로+주차장,호텔+아쿠아훼미리호텔+온천호텔+채플+pool빌라,정보없음,설악예방의학센터+월드스파+푸드코드+키즈캠프+레스토랑/카페동,정보없음,정보없음,350,자연
오동도,관광지,전라남도 여수시 오동도로 222,34.7443435,127.764121,061-659-1819,전라남도 여수시청,화장실+동백열차,정보없음,U-Bike,음악분수대,관광안내소,관리사무소,356,기타
분원백자자료관,관광지,경기도 광주시 남종면 산수로 1642-1,37.49625742,127.3034492,031-799-1500,경기도자박물관,주차장+화장실,정보없음,정보없음,백자자료관,정보없음,해당없음,0,기타
장도전수관,관광지,전라남도 광양시 광양읍 매천로 771,34.97705608,127.5805515,061-763-0510,광양 장도박물관,화장실+주차장+기념품판매소,정보없음,정보없음,정보없음,정보없음,정보없음,1000,기타
도립미술관,관광지,전라남도 광양시 순광로 680-4,34.96887104,127.5903033,061-797-2227,전라남도 광양시청 문화예술과,화장실+주차장+기념품판매소,정보없음,정보없음,미술관+전시관,카페테리아,관리사무소,1000,문화
광양와인동굴,관광지,전라남도 광양시 광양읍 강정길 33,34.96130264,127.6085909,061-794-7788,광양 와인동굴,화장실+주차장+기념품판매소+특산품판매소+매표소,정보없음,정보없음,해당없음,카페테리아,관리사무소,1000,자연
광양역사문화관,관광지,전라남도 광양시 광양읍 매천로 829,34.9757671,127.5859802,061-797-1985,전라남도 광양시청 문화예술과,주차장+화장실,정보없음,정보없음,전시관,정보없음,관리사무소,1000,철도/교통 체험
성류굴 관광지,관광지,경상북도 울진군 근남면 성류굴로 202,36.95884825,129.3794409,054-789-5402,경상북도 울진군청,도로+주차장+광장+화장실+오수처리장,펜션하우스,정보없음,동굴생태전시관+야외공연장,정보없음,정보없음,91,기타
백암온천 관광지,관광지,경상북도 울진군 온정면 온천로 7,36.72132775,129.343467,054-789-5480,경상북도 울진군청,도로+주차장+정류장+공원+녹지+소하천+온천공+소방시설+국유림관리소+배수지,호텔+콘도미니엄+국민호텔+교육원+여관+펜션,다목적운동장+축구장+잔디썰매장+체력단련장+극기체험장+족구장+서바이벌게임장,회의장+전망대+조경휴게소+자연학습장,정보없음,정보없음,501,온천/스파
유관순 열사 추모비,관광지,서울특별시 용산구 녹사평대로40다길 37,37.53587802,126.9897044,02-2199-7240,서울특별시 용산구청 문화진흥과,관리사무소+쉼터,정보없음,정보없음,정보없음,정보없음,정보없음,0,역사
한강 나루터,관광지,,37.530347,127.007028,02-2199-7240,서울특별시 용산구청 문화진흥과,화장실,정보없음,정보없음,정보없음,정보없음,정보없음,0,기타
큰한강 부군당(한남제1부군당),관광지,서울특별시 용산구 한남대로8길 9-9,37.531338,127.0103972,02-2199-7240,서울특별시 용산구청 문화진흥과,화장실+쉼터,정보없음,정보없음,정보없음,정보없음,정보없음,0,기타
작은한강 부군당(한남제2부군당),관광지,서울특별시 용산구 장문로49길 17-10,37.529112,127.0047267,02-2199-7240,서울특별시 용산구청 문화진흥과,화장실+쉼터,정보없음,정보없음,정보없음,정보없음,정보없음,0,기타
이슬람 중앙성원,관광지,서울특별시 용산구 우사단로10길 39,37.5332513,126.997615,02-793-6908,한국이슬람교,화장실+주차장+관광안내소,정보없음,정보없음,정보없음,정보없음,정보없음,50,기타
이바구공작소,관광지,부산광역시 동구 망양로486번길 14-13,35.11709939,129.0338233,051-440-4711,부산광역시 동구청 문화관광과,화장실+주차장,정보없음,정보없음,정보없음,정보없음,정보없음,2,기타
장기려더나눔센터,관광지,부산광역시 동구 영초윗길 48,35.11853593,129.0326526,051-440-4711,부산광역시 동구청 문화관광과,화장실+주차장,정보없음,정보없음,정보없음,정보없음,정보없음,2,기타
이바구충전소,관광지,부산광역시 동구 영초윗길 25,35.11735028,129.034686,051-440-4712,부산광역시 동구청 문화관광과,화장실,정보없음,정보없음,정보없음,정보없음,정보없음,0,기타
168계단 부대시설,관광지,부산광역시 동구 영초윗길26번길 14,35.1176995,129.0353474,051-440-4712,부산광역시 동구청 문화관광과,화장실,정보없음,정보없음,정보없음,정보없음,정보없음,0,기타
김민부전망대,관광지,부산광역시 동구 영초윗길26번길 14,35.1176995,129.0353474,051-440-4712,부산광역시 동구청 문화관광과,전기시설,정보없음,정보없음,정보없음,정보없음,정보없음,0,야경/전망대
유치환의 우체통,관광지,부산광역시 동구 망양로580번길 2,35.12209588,129.0338423,051-440-4714,부산광역시 동구청 문화관광과,화장실,정보없음,정보없음,정보없음,정보없음,정보없음,0,기타
소흥관(한중우호센터),관광지,부산광역시 동구 초량중로 36,35.11507608,129.0375502,051-440-4711,부산광역시 동구청 문화관광과,화장실,정보없음,정보없음,정보없음,정보없음,정보없음,0,기타
만화체험관,관광지,부산광역시 동구 성북로 42-1,35.13778041,129.0497944,051-440-4711,부산광역시 동구청 문화관광과,화장실+주차장,정보없음,정보없음,정보없음,정보없음,정보없음,2,체험
안용복기념 부산포개항문화관,관광지,부산광역시 동구 증산로 100,35.13563677,129.0529467,051-440-4711,부산광역시 동구청 문화관광과,화장실,정보없음,정보없음,정보없음,정보없음,정보없음,0,자연
선바위관광지,관광지,경상북도 영양군 입암면 영양로 883-16,36.60854407,129.0820141,054-680-5363,경상북도 영양군청,화장실+주차장+문화관광해설사 대기소,정보없음,어린이놀이터,야외공연장+분재수석야생화테마파크+고추홍보전시관+잔디밭 등,정보없음,정보없음,70,기타
예술의전당,관광지,서울특별시 서초구 남부순환로 2406,37.4802402,127.0142152,02-580-1300,예술의전당,오페라글라스+물품보관소+키즈라운지+수유실+주차요금+사전정산기+은행ATM,정보없음,정보없음,오페라극장+CJ 토월극장+자유소극장+콘서트홀+IBK챔버홀+리사이틀홀+한가람미술관+서예박물관 등,정보없음,정보없음,1212,문화
국립국악원,관광지,서울특별시 서초구 남부순환로 2364,37.47835156,127.0090736,02-580-3300,국립국악원,화장실+주차장+카페,정보없음,정보없음,국악박물관+예악당+우면당+연희풍류극장+국악연수관+야외체험관,정보없음,정보없음,227,기타
헌인릉,관광지,서울특별시 서초구 헌인릉길 36-10,37.46537744,127.0837156,02-440-0347,문화재청,화장실+주차장,정보없음,정보없음,정보없음,정보없음,정보없음,20,기타
매헌 윤봉길의사 기념관,관광지,서울특별시 서초구 매헌로 99,37.4730498,127.0369771,02-577-9932,국가보훈처,화장실+주차장,정보없음,정보없음,정보없음,정보없음,정보없음,50,문화
고투몰,관광지,서울특별시 서초구 신반포로 지하200,37.50622031,127.0050517,02-535-8182,강남터미널지하쇼핑몰,화장실,정보없음,정보없음,정보없음,정보없음,정보없음,0,기타
세빛섬· 반포대교 달빛무지개분수,관광지,서울특별시 서초구 올림픽대로 2085-14,37.5124362,126.9959623,1566-3433,효성티앤씨,화장실+주차장,정보없음,수상컨벤션센터,미디어아트갤러리+전망대,정보없음,정보없음,635,기타
고씨굴 관광지,관광단지,강원특별자치도 영월군 김삿갓면 영월동로 1111,37.13117779,128.5352623,033-375-6556,영월군시설관리공단,화장실(2동)+주차장+관광안내소+전기+통신+상하수도시설,모텔(2동),정보없음,박물관+전시관,관광식당,정보없음,470,기타
진해해양레포츠센터,관광지,경상남도 창원시 진해구 천자로 160,35.14129989,128.6883002,055-712-0445,창원시설관리공단,화장실+탈의실+샤워실+강의실,정보없음,정보없음,정보없음,정보없음,정보없음,0,기타
무주 덕유산 리조트,관광지,전북특별자치도 무주군 설천면 만선로 185,35.889797,127.731389,063-320-2547,전북특별자치도 무주군청,화장실+주차장,관광호텔+가족호텔+호스텔,골프장+스키장,정보없음,관광식당,전용숙소,10000,자연
월봉서원,관광지,광주광역시 광산구 광곡길 133,35.23583653,126.7451862,062-960-8255,광주광역시 광산구청,화장실(1)+주차장,정보없음,정보없음,정보없음,정보없음,정보없음,10,기타
무양서원,관광지,광주광역시 광산구 산월로21번길 26,35.21001305,126.8400956,062-960-8255,광주광역시 광산구청,화장실(1)+주차장,정보없음,정보없음,정보없음,정보없음,정보없음,6,기타
치산관광지,관광지,경상북도 영천시 신녕면 신암길 17,36.04693281,128.712821,054-330-6582,경상북도 영천시청,공용화장실+공영주차장,캐라반 6인용+캐빈하우스+캐라반 8인용,족구장,치산캠핑장,소공연장,전용숙소,281,자연
천지연폭포,관광지,제주특별자치도 서귀포시 남성중로 2-15(서홍동),33.2447447,126.5595511,064-760-6300,제주특별자치도 서귀포시청,관리사무소+화장실(3동)+주차장,정보없음,정보없음,정보없음,정보없음,정보없음,181,자연
정방폭포,관광지,제주특별자치도 서귀포시 칠십리로214번길 37(동홍동),33.24474912,126.5730486,064-760-6300,제주특별자치도 서귀포시청,관리사무소+화장실(1동)+주차장,정보없음,정보없음,정보없음,정보없음,정보없음,95,자연
주상절리대,관광지,제주특별자치도 서귀포시 이어도로 36-30(중문동),33.23799399,126.4260174,064-760-6300,제주특별자치도 서귀포시청,관리사무소+화장실(1동)+주차장,정보없음,정보없음,정보없음,정보없음,정보없음,80,기타
천제연폭포,관광지,제주특별자치도 서귀포시 천제연로 132(중문동),33.2526783,126.4183754,064-760-6300,제주특별자치도 서귀포시청,관리사무소+화장실(1동)+주차장,정보없음,정보없음,정보없음,정보없음,정보없음,141,자연
산방산,관광지,제주특별자치도 서귀포시 안덕면 산방로 218-11,33.23697818,126.312306,064-760-6300,제주특별자치도 서귀포시청,관리사무소+화장실(1동)+주차장,정보없음,정보없음,정보없음,정보없음,정보없음,26,자연
용머리해안,관광지,제주특별자치도 서귀포시 안덕면 사계남로216번길 24-30,33.23342738,126.3136956,064-760-6300,제주특별자치도 서귀포시청,관리사무소+화장실(2동)+주차장,정보없음,정보없음,정보없음,정보없음,정보없음,123,기타
불회사,관광지,전라남도 나주시 다도면 다도로 1224-142,34.90877918,126.8234812,061-337-3440,불회사,화장실,템플스테이,정보없음,체험프로그램,정보없음,정보없음,20,기타
금성관,관광지,전라남도 나주시 금성관길 8,35.03335643,126.7165553,061-339-8615,전라남도 나주시청,안내소+화장실,정보없음,정보없음,문화관광해설사,정보없음,정보없음,100,기타
도래마을(홍기옥 가옥),관광지,전라남도 나주시 다도면 동력길 16,34.9981825,126.8223995,061-336-3675,전라남도 나주시청,안내소+화장실,민박,정보없음,산책로,정보없음,정보없음,30,전통
정수루,관광지,전라남도 나주시 금성관길 13-20,35.03193288,126.7150148,061-330-8114,전라남도 나주시청,주차장,정보없음,정보없음,정보없음,정보없음,정보없음,100,기타
나주향교,관광지,전라남도 나주시 향교길 38,35.03403137,126.711466,061-334-2369,나주향교,화장실,정보없음,정보없음,체험프로그램+전시관,정보없음,정보없음,15,기타
완사천,관광지,전라남도 나주시 완사천길 14,35.01496092,126.7128194,061-339-8615,전라남도 나주시청,화장실,정보없음,정보없음,산책로,정보없음,정보없음,10,기타
목사내아,관광지,전라남도 나주시 금성관길 13-8,35.0320205,126.7151642,061-332-6565,전라남도 나주시청,관리실+화장실,한옥체험,정보없음,숙박실,정보없음,정보없음,100,기타
영모정,관광지,전라남도 나주시 다시면 회진길 14-8,34.9973737,126.6671219,061-339-8615,전라남도 나주시청,관리실+화장실,정보없음,정보없음,정보없음,정보없음,정보없음,5,기타
남고문,관광지,,35.0295791,126.7204701,061-330-7823,전라남도 나주시청,주차장,정보없음,정보없음,정보없음,정보없음,정보없음,200,기타
구)나주역,관광지,전라남도 나주시 죽림길 26,35.0280742,126.7262445,061-330-7823,전라남도 나주시청,주차장+화장실,정보없음,정보없음,정보없음,정보없음,정보없음,16,기타
노안천주교회,관광지,전라남도 나주시 노안면 이슬촌길 108,35.10432714,126.6754469,061-336-8900,노안천주교회,화장실,정보없음,정보없음,노안천주교회,정보없음,정보없음,10,기타
나주시천연염색박물관,관광지,전라남도 나주시 다시면 백호로 379,34.99403168,126.6625254,061-335-0091,전라남도 나주시청,화장실,정보없음,정보없음,체험관+전시관,정보없음,정보없음,100,문화
나주목문화관,관광지,전라남도 나주시 금성관길 15,35.03232804,126.7157031,061-332-5432,전라남도 나주시청,화장실,정보없음,정보없음,전시관,정보없음,정보없음,50,기타
중흥골드스파&리조트,관광지,전라남도 나주시 다도면 나주호로 558-314,34.94833414,126.8714774,061-339-5000,나주관광개발㈜,회의실+화장실,콘도+펜션,수상레포츠,수영장+스파+전시관,관광식당,정보없음,3000,온천/스파
제천온천관광지,관광지,,36.92183352,128.1819714,043-641-6694,충청북도 제천시청,관리사무소+도로+주차장+오수처리장+배수지,휴양콘도미니엄,정보없음,한방온천장(워터파크포함)+조경휴게지,정보없음,상가+완충녹지+원형보존녹지,0,온천/스파
교리관광지,관광지,충청북도 제천시 청풍면 청풍호로 1798,37.01656717,128.1768531,043-641-6694,충청북도 제천시청,오수정화조+정배수장+소각장+공중화장실+주차장+도로,청풍레이크호텔+청풍힐호텔+민박촌,다목적운동장+구기장+놀이동산+미니골프장,조경휴게소+녹지공원+다목적광장+격납고,정보없음,관리원 숙소+하천+유보지+녹지,200,기타
유당공원,관광지,전라남도 광양시 광양읍 백운로 14,34.97010442,127.5924243,061-797-4979,전라남도 광양시청 공원녹지과,주차장,정보없음,정보없음,정보없음,정보없음,정보없음,1000,산책/휴식
서천무지개분수대,관광지,,34.9735109,127.5756854,061-797-4979,전라남도 광양시청 공원녹지과,주차장+화장실,정보없음,정보없음,정보없음,정보없음,정보없음,1000,기타
은평역사한옥박물관,관광지,서울특별시 은평구 연서로50길 8,37.64033246,126.9380102,02-351-8525,서울특별시 은평구청,"장난감도서관, 휴게실, 화장실 등",없음,없음,"은평역사실, 한옥전시실",매표소(안내),정보없음,26,문화
금성당,관광지,서울특별시 은평구 진관2로 57-23,37.63513547,126.92538,02-388-6522,서울특별시 은평구청,화장실,없음,없음,정보없음,정보없음,정보없음,0,기타
지리산허브밸리,관광지,전북특별자치도 남원시 운봉읍 바래봉길 214,35.435092,127.548617,063-620-6254,전북특별자치도 남원시청,주차장,정보없음,정보없음,정보없음,정보없음,정보없음,150,자연
남원백두대간생태교육장전시관,관광지,전북특별자치도 남원시 운봉읍 운봉로 151,35.397328,127.5079302,063-620-5752,전북특별자치도 남원시청,주차장,정보없음,어린이 놀이시설,야외공연장,정보없음,정보없음,95,자연
보문관광단지,관광단지,경상북도 경주시 보문로 446,35.843673,129.2869659,054-779-6082,경상북도 경주시청,도로+동사무소+파출소+소방서+우체국+물레방아광장 등,특급호텔(5개소)+소형호텔(3개소)+콘도미니엄(5개소)+여관(8개소) 등,"회원제 골프장(36홀, 1개소)+퍼브릭골프장(18홀, 1개소)+유희 시설(경주월드) 등",컨벤션 센터+연수 및 수련시설+청소년수련시설+신라밀레니엄+종합스포츠시설+소공원 등,휴게식당+한식요식점+상가 등,정보없음,540,기타
백야 김좌진 장군 생가,관광지,충청남도 홍성군 갈산면 백야로 546번길 12,36.59786571,126.5471345,041-634-6952,충청남도 홍성군청,문화관광해설사 배치+화장실+주차장,정보없음,정보없음,박물관,정보없음,정보없음,60,역사
한용운선생생가지,관광지,충청남도 홍성군 결성면 만해로 318번길 83,36.56214158,126.5529499,041-642-6716,충청남도 홍성군청,문화관광해설사 배치+화장실+주차장,정보없음,정보없음,박물관,정보없음,정보없음,50,역사
성삼문 선생 유허지,관광지,충청남도 홍성군 홍북읍 매죽헌길 403-12,36.64524478,126.7310363,041-630-1221,충청남도 홍성군청,문화관광해설사 배치+화장실+주차장,정보없음,정보없음,고택,정보없음,정보없음,0,역사
홍주성 역사관,관광지,충청남도 홍성군 홍성읍 아문길 20,36.60019877,126.6609204,041-630-9240,충청남도 홍성군청,문화관광해설사 배치+화장실+주차장+체험실,정보없음,정보없음,박물관,정보없음,정보없음,0,철도/교통 체험
충남보훈관,관광지,충청남도 홍성군 홍성읍 상하천로,36.602981,126.660651,041-635-1090,충청남도 홍성군청,문화관광해설사 배치+화장실+주차장+체험실,정보없음,정보없음,전시장,정보없음,정보없음,2,기타
홍주의사총,관광지,충청남도 홍성군 홍성읍 의사로 79,36.6048297,126.6708805,041-633-8733,충청남도 홍성군청,문화관광해설사 배치+화장실+주차장,정보없음,정보없음,사적,정보없음,정보없음,80,기타
결성동헌,관광지,충청남도 홍성군 흥남서로 738번길,36.551381,126.611921,041-634-8712,충청남도 홍성군청,문화관광해설사 배치+화장실+주차장,정보없음,정보없음,문화재,정보없음,정보없음,20,기타
광명동굴,관광지,경기도 광명시 가학로 85번길 142,37.42467857,126.8634321,070-4277-8902,경기도 광명도시공사,주차장+화장실+매표소+방문자센터,정보없음,VR체험관+공포체험관,라스코전시관+예술의전당+미디어타워,푸드코트+노천카페+이동판매대+와인판매대+기념품샵,정보없음,899,자연
죽성드림세트장,관광지,,35.24113258,129.2479302,051-709-4081,부산광역시 기장군청 관광진흥과,화장실(2동) +주차장,정보없음,산책로+포토존,관광홍보전시관,안내데스크,정보없음,20,기타
박태준기념관,관광지,부산광역시 기장군 장안읍 임랑해안길 1,35.316877,129.261226,051-709-3975,산림청,화장실 +주차장+도서관,정보없음,산책로,도서관+기념관 전시실,안내데스크,정보없음,9,문화
달음산자연휴양림,관광지,부산광역시 기장군 일광읍 화용길 299-106,35.291977,129.213303,051-722-3023,부산광역시 기장군청 문화체육과,화장실+주차장,관광숙박시설,산책로+운동시설,숲 체험공간,안내센터,정보없음,50,자연
롯데월드 부산,관광지,부산광역시 기장군 기장읍 동부산관광로 42,35.19603043,129.2129711,1661-2000,롯데,화장실+주차장,관광숙박시설,테마파크,테마파크,안내센터,정보없음,1000,자연
대전문화예술단지,관광단지,대전광역시 서구 둔산대로 169,36.366496,127.3880154,042-270-8333,N,Y,N,Y,Y,N,Y,751,문화
으능정이문화의거리,관광지,대전광역시 중구 중앙로 170,36.32934665,127.428337,042-252-7100,N,Y,N,Y,Y,N,Y,355,기타
유성온천,관광지,대전광역시 유성구 계룡로60,36.3547298,127.3375865,042-611-2114,N,Y,N,Y,Y,N,Y,0,온천/스파
금월봉관광지,관광지,충청북도 제천시 금성면 청풍호로 1316,37.04384263,128.1736527,043-641-6694,충청북도 제천시청,관리사무소+주차장+공중화장실+오수처리장+정수장(배수지)+도로+이벤트광장+변전소,빌라형+테라스형1+테라스형2+별장형+타워형,정보없음,조경휴게소,정보없음,상가+보전녹지+기타녹지,300,기타
계산관광지,관광지,,37.017861,128.130911,043-641-6694,충청북도 제천시청,주차장+도로+배수지오수처리장,펜션,운동장+눈썰매장,조경휴게소+바비큐장+전망대,정보없음,완충녹지+원형보존녹지,0,자연
만남의광장,관광지,충청북도 제천시 청풍면 청풍호로50길 6,37.01083356,128.1811895,043-641-6694,충청북도 제천시청,도로+광장+공용주차장+매표소(매점)+화장실,정보없음,번지점프장+인공암벽장+종합관리동,만남의광장+휴게쉼터+야생화원,정보없음,정보없음,264,기타
제천 성내관광지,관광지,충청북도 제천시 금성면 청풍호로 1482,37.03366403,128.1751729,043-641-6694,충청북도 제천시청,도로+광장+주차장+관리동+화장실,정보없음,정보없음,촬영장+휴게쉼터,정보없음,전문음식점+기념품(토산품점)+녹지,0,기타
사성암,관광지,전라남도 구례군 문척면 사성암길 303,35.18012828,127.480644,061-781-4544,전라남도 구례군청,화장실+주차장+상하수도시설,정보없음,정보없음,정보없음,정보없음,정보없음,20,기타
운조루,관광지,전라남도 구례군 토지면 운조루길 59,35.20594498,127.5152886,061-782-2432,전라남도 구례군청,화장실+주차장,정보없음,정보없음,정보없음,정보없음,정보없음,20,기타
한국압화박물관,관광지,전라남도 구례군 구례읍 동산1길 29,35.19664998,127.4599106,061-780-2082,전라남도 구례군청,화장실+주차장+상하수도시설,정보없음,정보없음,정보없음,정보없음,정보없음,10,문화
지리산역사문화관,관광지,전라남도 구례군 마산면 화엄사로 377-36,35.24408524,127.4837599,061-780-8040,전라남도 구례군청,화장실+주차장+상하수도시설,정보없음,정보없음,정보없음,정보없음,정보없음,30,자연
섬진강어류생태관,관광지,전라남도 구례군 간전면 간전중앙로 47,35.18745224,127.5465226,0507-1330-366,전라남도 구례군청,"화장실, 주차장, 상하수도시설",정보없음,정보없음,정보없음,정보없음,정보없음,50,자연
충렬사,관광지,부산광역시 동래구 충렬대로 345,35.199577,129.0959922,051-523-4223,충렬사관리사무소,안내소+화장실(1동)+주차장,정보없음,정보없음,정보없음,정보없음,정보없음,10,기타
해양자연사박물관,관광지,부산광역시 동래구 우장춘로 175 (온천동),35.2219498,129.075647,051-593-4944,부산해양자연사박물관,안내소+화장실,정보없음,정보없음,정보없음,정보없음,정보없음,0,문화
에듀팜특구관광단지(벨포레리조트),관광단지,충청북도 증평군 도안면 벨포레길 346,36.84514868,127.5821182,1566-0162,㈜블랙스톤에듀팜리조트,관리사무소+화장실+주차장,휴양콘도(펫동반 가능 객실 보유),골프장+익스트림루지+수상레저+마리나클럽+디노시네마+몬테소리+미디어아트센터+모토아레나,벨포레목장+국제정원+펫포레플레이그라운드 및 힐링코스,정보없음,정보없음,2776,기타
동구릉,관광지,경기도 구리시 동구릉로 197,37.6171286,127.136334,031-563-2909,문화재청,관리사무소+화장실+주차장,정보없음,정보없음,정보없음,정보없음,정보없음,109,기타
당항포관광지,관광지,경상남도 고성군 회화면 당항만로 1116,35.05322615,128.3920276,055-670-7400,경상남도 고성군청,관리사무소+매표소(게이트)+화장실+샤워장+취사장+주차장+오수처리장,펜션+오토캠핑장,미끄럼틀+야외풀장+모험놀이장+족구장 2면+야외 대공연장+소공연장,오토캠핑장,식당,펜션,1572,기타
남당,관광지,,36.53886252,126.4716002,041-630-1300,충청남도 홍성군청,관광안내소+화장실+주차장,정보없음,홍성승마체험장,상황리오토캠핑장,정보없음,정보없음,408,기타
송도해수욕장,관광지,부산광역시 서구 송도해변로 100,35.07682117,129.0180502,051-240-4126,부산광역시 서구청,화장실,정보없음,송도구름산책로+해상다이빙대+해양레포츠센터+바닥분수대 등,탈의실+샤워장+분수대+파고라+테마거리 등,임해행정봉사실,정보없음,1047,계절별 명소
암남공원,관광지,부산광역시 서구 암남공원로 185,35.0616574,129.0149368,051-240-4538,부산광역시 서구청,화장실,정보없음,낚시터+레포츠 시설 등,음수대+조각작품 등,관리사무소,정보없음,341,산책/휴식
구덕문화공원,관광지,부산광역시 서구 꽃마을로 163번길 73,35.12641369,129.005742,051-240-3521,부산광역시 서구청,화장실,정보없음,정보없음,교육역사관+민속생활관+목석원예관+인공폭포+편백숲 명상의 길+다목적관,정보없음,정보없음,16,산책/휴식
중앙공원,관광지,부산광역시 서구 대신공원로 37-18,35.121591,129.0161785,051-860-7800,부산시설공단 중앙공원사업소,화장실,정보없음,운동시설+궁도장 등,저수지+약수터+산책로+시비+조각품+민속석조물 등,관리사무소,정보없음,110,산책/휴식
부산공동어시장,관광지,부산광역시 서구 충무대로 202,35.08990091,129.0263675,051-254-8961,부산광역시 수산업협동조합,화장실,정보없음,정보없음,정보없음,사무실,정보없음,482,자연
천마산조각공원,관광지,부산광역시 서구 천마산로 209번길 94,35.08903987,129.0174786,051-240-3521,부산광역시 서구청,화장실,정보없음,소운동장 및 각종 체육시설,산책로+전망대+쉼터+조각작품 등,관리실,정보없음,0,자연
구덕운동장,관광지,부산광역시 서구 망양로 57 (씨름체육관 서구 꽃마을로 156번길12),35.11659638,129.0145297,051-602-2211,부산광역시 체육시설관리사업소,화장실,정보없음,주경기장+야구장+체육관 등,정보없음,관리사무소,정보없음,182,기타
임시수도기념관,관광지,부산광역시 서구 임시수도기념로 45,35.10374876,129.0175954,051-244-6345,부산광역시 서구청,화장실,정보없음,정보없음,전시실 등,관리실,정보없음,18,문화
국악의 성지,관광지,전북특별자치도 남원시 운봉읍 비전길 69,35.459997,127.569101,063-620-6905,전북특별자치도 남원시청,주차장,정보없음,정보없음,야외공연장,정보없음,정보없음,50,기타
박차정의사생가,관광지,부산광역시 동래구 명륜로 98번길 129-10(칠산동),35.20169645,129.090397,051-860-7880,동래구 문화시설사업소,화장실,정보없음,정보없음,정보없음,정보없음,정보없음,0,역사
금강공원,관광지,부산광역시 동래구 우장춘로 155 (온천동),35.21962513,129.075758,051-860-7880,부산시설공단,관리사무소+화장실+주차장,정보없음,정보없음,정보없음,정보없음,정보없음,216,산책/휴식
허심청,관광지,부산광역시 동래구 온천장로107번길 32 (온천동),35.221157,129.0826889,051-550-2200,호텔농심,안내데스크+화장실+주차장,정보없음,정보없음,정보없음,정보없음,정보없음,200,기타
복천박물관,관광지,부산광역시 동래구 복천로 63(복천동),35.20877662,129.0911741,051-550-0311,복천박물관,안내데스크+화장실+주차장,정보없음,정보없음,정보없음,정보없음,정보없음,30,문화
고구려대장간마을,관광지,경기도 구리시 우미내길 41,37.56080787,127.1109492,031-550-8355,경기도 구리시청,관리사무소+화장실+주차장,정보없음,정보없음,정보없음,정보없음,정보없음,100,전통
남한산성,관광지,경기도 광주시 남한산성면 남한산성로 731,37.47669636,127.1884165,031-8008-5155,남한산성세계문화유산센터,주차장+화장실,펜션,정보없음,행궁+만해기념관 등,관광식당,해당없음,945,자연
능강관광지,관광지,충청북도 제천시 수산면 옥순봉로 1248,36.99002277,128.1956764,043-641-6694,충청북도 제천시청,주차장+관광정보안내소+관리사무소+오수처리장+정배수장+순환도로+전용상수도,휴양콘도미니엄,골프연습장+미니골프장+노래방+당구장,"산상전망대1,2+찜질방+자연학습장+과수단지+문화관+전통도예방+야외공연장+산정휴게소+명산센터",정보없음,녹지,300,기타
아리랑마을관광지,관광지,전라남도 진도군 임회면 아리랑길 95-5,34.38201529,126.2310334,061-540-3442,전라남도 진도군청,화장실(2동)+주차장(3개소),정보없음,정보없음,아리랑체험관+홍주촌+예술인촌전시관,정보없음,정보없음,150,전통
신정호국민관광지,관광지,충청남도 아산시 신정로 616,36.77152141,126.9839152,041-540-8725,충청남도 아산시청,관리사무소+화장실+주차장+변전실,정보없음,정보없음,정보없음,정보없음,정보없음,670,기타
아산온천관광지,관광지,충청남도 아산시 송악면 도송로632번길 138,36.69884759,126.9666069,041-540-2822,충청남도 아산시청,"관리사무소+,화장실+,주차장+일반광장",정보없음,정보없음,정보없음,정보없음,정보없음,350,자연
노고단,관광지,전라남도 구례군 토지면 반곡길 42-237,35.23629045,127.5547986,061-780-7700,전라남도 구례군청,화장실+주차장+상하수도시설,정보없음,정보없음,정보없음,정보없음,정보없음,200,기타
지리산정원,관광지,전라남도 구례군 광의면 온동2길 124,35.28722643,127.4388392,061-780-8026,전라남도 구례군청,화장실+주차장,정보없음,정보없음,정보없음,정보없음,정보없음,50,자연
섬진강대숲길,관광지,,35.18633781,127.4652531,061-780-2390,전라남도 구례군청,화장실+주차장,정보없음,정보없음,정보없음,정보없음,정보없음,50,자연
화엄사,관광지,전라남도 구례군 마산면 화엄사로 239,35.25731602,127.4977197,061-783-7600,전라남도 구례군청,화장실+주차장+상하수도시설+관광안내소,정보없음,정보없음,정보없음,정보없음,정보없음,100,기타
천은사,관광지,전라남도 구례군 광의면 노고단로 209,35.27309271,127.476325,061-781-4800,전라남도 구례군청,화장실+주차장+상하수도시설+관광안내소,정보없음,정보없음,정보없음,정보없음,정보없음,100,기타
다부동전적기념관,관광지,경상북도 칠곡군 가산면 호국로 1486,36.046443,128.518875,054-973-6313,경상북도 칠곡군청,관리사무실+화장실+주차장,정보없음,정보없음,정보없음,정보없음,정보없음,150,문화
송정자연휴양림,관광지,경상북도 칠곡군 석적읍 반계3길 88,36.023332,128.441641,054-979-6000,경상북도 칠곡군청,관리사무실+화장실+주차장+야영장+숙박시설+샤워장+취사장,야영장+펜션,숲체험장,정보없음,정보없음,전용숙소,100,자연
칠곡보오토캠핑장,관광지,경상북도 칠곡군 약목면 강변서로 110-43,36.020591,128.394566,054-974-7997,경상북도 칠곡군청,전기시설+상하수도시설+화장실+샤워장,정보없음,정보없음,정보없음,정보없음,전용숙소,100,야외활동
칠곡호국평화기념관,관광지,경상북도 칠곡군 석적읍 강변대로 1580,36.017918,128.404032,054-979-5502,경상북도 칠곡군청,식당+화장실+수유실+사무실,정보없음,각종체험관+전시공간,세미나실+다목적실,정보없음,정보없음,300,문화
칠곡양떼목장,관광지,경상북도 칠곡군 지천면 창평로 209-42,35.984545,128.48874,054-972-8833,경상북도 칠곡군청,사무실+주차장+화장실+양떼목장,정보없음,정보없음,정보없음,정보없음,정보없음,100,기타
가산수피아,관광지,경상북도 칠곡군 가산면 학하들안2길 105,36.086109,128.485044,054-971-9861,경상북도 칠곡군청,관리실+야영장+수영장+사계절썰매장+공룡뜰+배움뜰+미술관,정보없음,정보없음,정보없음,정보없음,정보없음,500,자연
국립칠곡숲체원,관광지,경상북도 칠곡군 석적읍 유학로 532,36.063539,128.466183,054-977-8773,경상북도 칠곡군청,관리실+숲체원+체험장,정보없음,정보없음,정보없음,정보없음,전용숙소,100,자연
곡성섬진강천문대,관광지,전라남도 구례군 구례읍 섬진강로 1234,35.22666779,127.3691674,061-363-8528,전라남도 곡성군청 관광과,주차장+화장실+장애인 공용화장실,정보없음,정보없음,정보없음,정보없음,정보없음,25,과학/천문
섬진강도깨비마을,관광지,전라남도 곡성군 고달면 호곡도깨비길 119-99,35.25424902,127.363209,061-362-2954,전라남도 곡성군청 문화체육과,주차장+화장실,정보없음,정보없음,정보없음,정보없음,정보없음,5,전통
압록상상스쿨,관광지,전라남도 곡성군 오곡면 섬진강로 1060,35.19580901,127.375484,061-362-2225,전라남도 곡성군청 관광과,주차장+화장실+수유실,정보없음,정보없음,정보없음,정보없음,정보없음,16,기타
압록유원지,관광지,전라남도 곡성군 죽곡면 섬진강로 1012,35.19196269,127.3775123,061-360-8431,전라남도 곡성군청 관광과,주차장+화장실+개수대,정보없음,정보없음,정보없음,정보없음,정보없음,50,기타
하동레일파크,관광지,경상남도 하동군 북천면 경서대로 2446-6,35.11333681,127.8929765,055-880-2821,경상남도 하동군청,화장실(1동)+주차장,정보없음,레일바이크,정보없음,정보없음,정보없음,30,테마파크/놀이공원
지리산역사관,관광지,경상남도 하동군 화개면 화개로 1438,35.2896912,127.646527,055-880-2821,경상남도 하동군청,화장실(1동)+주차장,정보없음,정보없음,정보없음,정보없음,정보없음,15,자연
하동코리아짚와이어,관광지,경상남도 하동군 금남면 경충로 493-9,34.98260917,127.894714,055-880-2821,경상남도 하동군청,화장실(1동)+주차장,정보없음,짚와이어,정보없음,정보없음,정보없음,133,기타
하동 플라이웨이 케이블카,관광지,경상남도 하동군 금남면 경충로 461-7,34.98070015,127.8953015,055-883-2000,하동케이블카(주),화장실(3동)+주차장,정보없음,케이블카,정보없음,정보없음,정보없음,53,기타
녹진관광지,관광지,전라남도 진도군 군내면 진도대로 8478,34.56907794,126.300024,061-540-3442,전라남도 진도군청,화장실(3동)+주차장(5개소)+관광안내소(1동),정보없음,정보없음,진도타워+해양에너지공원+판옥선+진도휴게소,정보없음,정보없음,310,기타
회동관광지,관광지,전라남도 진도군 고군면 신비의바닷길 148,34.42726548,126.3513474,061-540-3442,전라남도 진도군청,화장실(4동)+주차장(4개소)+관광안내소(1동),정보없음,게이트볼장+야구장,신비의바닷길체험관+가계해수욕장+회동전망대+해양생태관,회동+가계공연장,청소년수련원,350,기타
직탕,관광지,강원도 철원군 갈말읍 직탕길 32,38.2069247,127.2690548,033-450-5534,철원군청 관광과,"도로, 주차장, 화장실, 산책로, 자전거도로, 오수처리장, 관리사무소",정보없음,정보없음,정보없음,정보없음,정보없음,192,기타
가산산성,관광지,,36.021011,128.590851,054-880-8334,경상북도,사무실+주차장+화장실,정보없음,정보없음,정보없음,정보없음,정보없음,200,자연
가산산성야영장,관광지,경상북도 칠곡군 동명면 한티로 1034,36.016197,128.618108,054-880-8300,경상북도,사무실+화장실,야영장,정보없음,정보없음,정보없음,전용숙소,220,자연
구상문학관,관광지,경상북도 칠곡군 왜관읍 구상길 191,35.983943,128.394568,054-973-0039,경상북도 칠곡군청,사무실+화장실+주차장,정보없음,정보없음,정보없음,정보없음,정보없음,10,문화
용산신학교,관광지,서울특별시 용산구 원효로19길 49,37.53420937,126.9545934,02-701-5501,성심수녀회,주차장+쉼터+화장실,정보없음,정보없음,정보없음,정보없음,정보없음,10,체험
서울 원효로 예수성심당,관광지,서울특별시 용산구 원효로19길 49,37.53420937,126.9545934,02-701-5501,성심수녀회,주차장,정보없음,정보없음,정보없음,정보없음,정보없음,10,기타
구 용산 수위관측소,관광지,,37.533956,126.947132,02-2199-7240,서울특별시 기념물,쉼터,정보없음,정보없음,정보없음,정보없음,정보없음,0,자연
심원정 왜명강화지처비,관광지,서울특별시 용산구 효창원로8길 28,37.53342496,126.95186,02-2199-7240,서울특별시 용산구청 문화진흥과,쉼터,정보없음,정보없음,정보없음,정보없음,정보없음,10,기타
청암동 부군당,관광지,서울특별시 용산구 원효로 17-11,37.534803,126.946373,02-2199-7240,서울특별시 용산구청 문화진흥과,화장실,정보없음,정보없음,정보없음,정보없음,정보없음,0,기타
산천동 부군당,관광지,서울특별시 용산구 효창원로15길 7,37.535662,126.9531703,02-2199-7240,서울특별시 용산구청 문화진흥과,산천동마을마당(작은쉼터)+화장실,정보없음,정보없음,정보없음,정보없음,정보없음,0,자연
3.1운동 용산인쇄소 노동자 만세시위지,관광지,서울특별시 용산구 원효로41길 33,37.53543893,126.9584156,02-2199-7240,서울특별시 용산구청 문화진흥과,주차장,정보없음,정보없음,정보없음,정보없음,정보없음,0,자연
이봉창 의사 집터,관광지,서울특별시 용산구 백범로 275,37.540313,126.959653,02-2199-7240,서울특별시 용산구청 문화진흥과,쉼터,정보없음,정보없음,정보없음,정보없음,정보없음,0,기타
백범김구기념관,관광지,서울특별시 용산구 임정로 26,37.54427794,126.959253,02-799-3400,백범김구기념관,지하주차장+야외주차장+화장실,정보없음,정보없음,전시관,정보없음,컨벤션홀대회의실교육장,100,문화
이봉창 의사 역사울림관,관광지,서울특별시 용산구 백범로 281-9,37.54010272,126.960852,02-2199-7240,서울특별시 용산구청 문화진흥과,쉼터,정보없음,정보없음,정보없음,정보없음,정보없음,0,철도/교통 체험
남이장군 사당,관광지,서울특별시 용산구 효창원로 88-10,37.536475,126.958433,02-2199-7240,서울특별시 용산구청 문화진흥과,화장실,정보없음,정보없음,정보없음,정보없음,정보없음,0,기타
연복사탑중창비,관광지,서울특별시 용산구 한강대로21나길 7,37.5297718,126.9647415,02-2199-7240,서울특별시 용산구청 문화진흥과,쉼터,정보없음,정보없음,정보없음,정보없음,정보없음,5,기타
서울 구 용산철도병원 본관(현 용산역사박물관),관광지,서울특별시 용산구 한강대로14길 35-29,37.52557465,126.9656016,02-2199-4620,용산역사박물관,화장실+수유실+관광안내소,정보없음,정보없음,옥상정원,카페,정보없음,0,문화
왜고개 순교성지,관광지,서울특별시 용산구 한강대로40길 46,37.52990239,126.9719253,02-798-2457,왜고개 순교성지,화장실,정보없음,정보없음,정보없음,정보없음,정보없음,20,기타
옛 간조 경성지점 사옥,관광지,서울특별시 용산구 한강대로42길 13,37.53059231,126.970508,02-2199-7240,서울특별시 용산구청 문화진흥과,화장실,정보없음,정보없음,정보없음,정보없음,정보없음,0,기타
새남터,관광지,서울특별시 용산구 이촌로 71,37.52587942,126.956708,070-8672-0327,새남터 성당,쉼터,정보없음,정보없음,정보없음,정보없음,정보없음,0,기타
천주교 순교성지 새남터 성당,관광지,서울특별시 용산구 이촌로 80-8,37.52512658,126.9570717,070-8672-0327,새남터 성당,화장실+관광안내소,정보없음,정보없음,기념관,정보없음,정보없음,20,기타
이태원 부군당,관광지,서울특별시 용산구 녹사평대로40다길 37,37.53587802,126.9897044,02-2199-7240,서울특별시 용산구청 문화진흥과,관리사무소+쉼터,정보없음,정보없음,정보없음,정보없음,정보없음,0,기타
장영실과학동산,관광지,부산광역시 동래구 동래역사관길 18(복천동),35.20916308,129.0896688,051-550-6604,동래구 문화시설사업소,화장실(2동),정보없음,정보없음,정보없음,정보없음,정보없음,50,자연
당고개 순교성지,관광지,서울특별시 용산구 청파로 139-26,37.53559012,126.966963,02-711-0933,당고개 순교성지,화장실,정보없음,정보없음,정보없음,정보없음,정보없음,10,기타
옛 풍국제과 공장(현 오리온),관광지,서울특별시 용산구 백범로90다길 13,37.53567207,126.9695135,02-710-6000,오리온,화장실+주차장,정보없음,정보없음,정보없음,정보없음,정보없음,70,기타
칠백의총,관광지,충청남도 금산군 금성면 의총길 50,36.12942797,127.492435,041-753-8701,문화재청칠백의총관리사무소,관리사무소+화장실(5동)+주차장,정보없음,정보없음,기념관+칠백의사순의탑+종용사,정보없음,정보없음,116,기타
태고사,관광지,충청남도 금산군 진산면 청림동로 440,36.13440357,127.3251004,041-750-2273,충청남도 금산군청,관리사무소+화장실(2동),정보없음,정보없음,대웅전,정보없음,정보없음,30,기타
개삼터,관광지,충청남도 금산군 남이면 개삼로 101,36.07533917,127.4783939,041-750-2257,충청남도 금산군청,화장실(1동)+주차장,정보없음,정보없음,개삼각,정보없음,정보없음,37,기타
태조대왕태실,관광지,,36.19976177,127.4543633,041-750-2273,충청남도 금산군청,화장실(1동)+주차장,정보없음,정보없음,태조대왕태실 석비,정보없음,정보없음,100,기타
보석사,관광지,충청남도 금산군 남이면 보석사1길 30,36.054757,127.4753969,041-750-2273,충청남도 금산군청,관리사무소+화장실(2동)+주차장,정보없음,정보없음,대웅전,정보없음,정보없음,20,기타
보석사   은행나무,관광지,충청남도 금산군 남이면 보석사1길 30,36.054757,127.4753969,041-750-2273,충청남도 금산군청,관리사무소+화장실(2동)+주차장,정보없음,정보없음,은행나무,정보없음,정보없음,20,기타
남파고택,관광지,전라남도 나주시 금성길 13,35.03051267,126.7184493,061-332-6100,박경중,화장실,정보없음,정보없음,체험프로그램+전시관,정보없음,정보없음,20,역사
반남고분군,관광지,전라남도 나주시 반남면 고분로 756,34.91475649,126.6613546,061-336-1151,전라남도 나주시청,안내소+화장실,정보없음,정보없음,정보없음,정보없음,정보없음,100,역사
백호문학관,관광지,전라남도 나주시 다시면 회진길 8,34.99694703,126.6668094,061-335-5008,전라남도 나주시청,화장실,정보없음,정보없음,체험프로그램+전시관,정보없음,정보없음,20,문화
국립나주박물관,관광지,전라남도 나주시 반남면 고분로 747,34.91485383,126.6589014,061-330-7885,문화체육관광부,회의실+주차장+화장실,정보없음,정보없음,전시관,정보없음,정보없음,200,문화
영산포 역사갤러리,관광지,전라남도 나주시 영산3길 17,35.00072134,126.7115039,061-331-1755,전라남도 나주시청,화장실,정보없음,정보없음,전시관,정보없음,정보없음,2,자연
나주복암리고분전시관,관광지,전라남도 나주시 다시면 백호로 287,34.99608962,126.6570592,061-337-0090,전라남도 나주시청,관리실+화장실,정보없음,야외공원,영상체험관+전시관,정보없음,정보없음,56,역사
일본인근대가옥,관광지,전라남도 나주시 예향로 3869-4,34.99946578,126.7131249,061-334-7726,전라남도 나주시청,화장실,정보없음,정보없음,정보없음,정보없음,정보없음,2,기타
빛가람호수공원전망대,관광지,전라남도 나주시 호수로 77,35.01395501,126.7949874,061-333-1501,전라남도 나주시청,안내소+화장실,정보없음,돌미끄럼틀+모노레일,전망대+갤러리+전시관,관광공연장,정보없음,104,야경/전망대
송정관광지,관광지,경상남도 남해군 미조면 미송로 483,34.7231451,128.0249667,055-860-8615,경상남도 남해군,샤워탈의장/화장실(2동)+관리사무실(2동)+오수처리장+주차장,정보없음,정보없음,정보없음,정보없음,정보없음,387,기타
평택호관광단지,관광단지,경기도 평택시 현덕면 평택호길 48,36.914825,126.912951,031-8024-8687,경기도 평택시청,관리사무소+화장실(5동)+주차장(5개소) 등,관광호텔 등,수변데크+공원 등,한국소리터+평택호예술관+지영희국악관 등,식당+카페 등,관리사무소,724,기타
성기동,관광지,전라남도 영암군 군서면 왕인로 440,34.75653201,126.6291224,061-470-6653,전라남도 영암군청,비지터센터+화장실(9동)+주차장,정보없음,정보없음,전시관 2개소,정보없음,정보없음,860,기타
마한문화,관광지,전라남도 영암군 시종면 남해당로 65,34.89539241,126.5859196,061-470-6672,전라남도 영암군청,비지터센터+화장실(3동)+주차장,정보없음,야구장,고분탐사관+전망대,정보없음,정보없음,85,기타
영산호관광지,관광지,전라남도 영암군 삼호읍 녹색로 653-11,34.776135,126.4577774,061-462-2798,전라남도청,관리사무소+화장실(8동)+주차장,한옥호텔+관광호텔,승마장,농업박물관+쌀문화테마공원,정보없음,정보없음,375,자연
호미곶관광단지,관광지,경상북도 포항시 남구 호미곶면 해맞이로 136,36.07608308,129.5665319,054-270-2244,경상북도 포항시 관광산업과,공중화장실+잔디밭,정보없음,정보없음,새천년기념관,여행자센터,정보없음,223,기타
탄금공원,관광지,충청북도 충주시 남한강로 24,36.98782919,127.9055691,043-850-6751,충청북도 충주시청,주차장+도로+화장실+야외놀이터,정보없음,돌미로원+라바랜드+어린이놀이시설,세계무술박물관+야외공연장,정보없음,정보없음,718,산책/휴식
충주호체험,관광지,충청북도 충주시 중앙탑면 중앙탑길 150,37.02308256,127.8619229,043-850-6751,충청북도 충주시청,주차장+도로+화장실,정보없음,그랜드스탠드+마리나센터+중앙탑공원,야영장+풍류문화관+충주박물관,정보없음,정보없음,285,기타
능암온천,관광지,충청북도 충주시 앙성면 새바지길 37,37.09370046,127.802172,043-850-6732,충청북도 충주시청,도로,정보없음,정보없음,정보없음,정보없음,정보없음,100,온천/스파
충온온천,관광지,충청북도 충주시 앙성면 산전장수1길 103,37.10173095,127.7962316,043-850-6732,충청북도 충주시청,도로,콘도미니엄,정보없음,정보없음,정보없음,정보없음,165,온천/스파
수동관광지,관광지,경기도 남양주시 수동면 비룡로 1635,37.75797919,127.2753596,031-559-8018,경기도 남양주시청,"개방화장실, 주차장",정보없음,정보없음,"몽골문화촌, 민속전시관, 어린이체험관, 공연장",정보없음,정보없음,119,기타
창녕 우포늪,관광지,경상남도 창녕군 유어면 우포늪길 220,35.54456088,128.4191195,055-530-2121,경상남도 창녕군청,안내소+화장실,우포생태촌유스호스텔,자전거대여+우포늪생태관,정보없음,정보없음,정보없음,325,기타
화왕산,관광지,,35.54419647,128.5344873,055-530-1661,경상남도 창녕군청,화장실,화왕산자연휴양림,정보없음,정보없음,정보없음,정보없음,731,자연
부곡온천관광특구,관광단지,경상남도 창녕군 부곡면 원앙로 218,35.4361725,128.5916371,055-530-1591,경상남도 창녕군청,화장실,가족호텔+목욕장,부곡온천르네상스관,정보없음,정보없음,정보없음,1360,온천/스파
낙동강 유채단지,관광지,,35.384718,128.4715696,055-530-1651,경상남도 창녕군청,화장실,정보없음,정보없음,정보없음,정보없음,정보없음,1500,기타
우장춘기념관,관광지,부산광역시 동래구 우장춘로62번길 7(온천동),35.213515,129.0720181,051-550-6602,동래구 문화시설사업소,화장실,정보없음,정보없음,정보없음,정보없음,정보없음,2,문화
난지섬관광지,관광지,충청남도 당진시 석문면 난지1길 67,37.047036,126.4242087,041-350-3601,충청남도 당진시청,공중화장실+공연장+전망대,정보없음,정보없음,정보없음,정보없음,정보없음,150,기타
마곡사관광지,관광지,,36.55617136,127.0205918,1899-0088,공주시,화장실+주차장,"펜션, 민박",백범명상길,탬플스테이,음식점,정보없음,100,기타
공주문화관광지,관광지,,36.47022166,127.1117007,1899-0088,공주시,화장실+주차장+관리사무소+관광안내소,한옥마을,공산성,"고마센터, 국립박물관",음식점,정보없음,100,기타
서포리관광지,관광단지,인천광역시 옹진군 덕적면 덕적남로606번길 3,37.2232919,126.1169337,032-899-2213,인천광역시 옹진군청,관리사무소+오수처리장+샤워장+도로+주차장+화장실,여관,운동시설,야영장,정보없음,정보없음,20,기타
대전둘레산길,관광단지,대전광역시 중구 보문산공원로 440,36.30879672,127.4231236,042-270-5583,N,Y,N,Y,Y,N,Y,0,자연
동춘당,관광지,대전광역시 대덕구 동춘당로 80,36.36537889,127.4412933,042-607-6575,N,Y,N,Y,Y,N,Y,30,기타
반월호수,관광지,경기도 군포시 호수로 92,37.32458238,126.8899642,031-392-3000,경기도 군포시청,화장실,정보없음,정보없음,정보없음,정보없음,정보없음,120,기타
초막골 생태공원,관광지,경기도 군포시 초막골길 216,37.35410097,126.9191417,031-392-3000,경기도 군포시청,화장실,정보없음,정보없음,전시관,카페,방문자센터,184,자연
철쭉동산,관광지,,37.35543392,126.924967,031-392-3000,경기도 군포시청,화장실,정보없음,정보없음,정보없음,정보없음,정보없음,260,자연
수리사,관광지,경기도 군포시 속달로 347-181,37.35443607,126.8967938,031-438-1823,수리사,화장실,정보없음,정보없음,정보없음,정보없음,정보없음,5,기타
물누리체험관,관광지,경기도 군포시 호수로 170-85,37.32136505,126.8996775,031-390-8688,경기도 군포시청,화장실,정보없음,정보없음,정보없음,정보없음,정보없음,11,체험
누리천문대,관광지,경기도 군포시 대야2로 139,37.33028283,126.9153444,031-501-7100,경기도 군포시청,화장실,정보없음,정보없음,정보없음,정보없음,정보없음,10,과학/천문
표충비,관광지,경상남도 밀양시 무안면 동부동안길4,35.471582,128.6520376,055-359-5639,경상남도 밀양시청,화장실,정보없음,정보없음,정보없음,정보없음,정보없음,50,기타
작원관지,관광지,경상남도 밀양시 삼랑진읍 작원관지길 77,35.39853126,128.8665763,055-359-5639,경상남도 밀양시청,화장실,정보없음,정보없음,정보없음,정보없음,정보없음,50,기타
예림서원,관광지,경상남도 밀양시 부북면 예림서원로128,35.46605971,128.7299691,055-359-5639,경상남도 밀양시청,화장실,정보없음,정보없음,정보없음,정보없음,정보없음,50,기타
밀양향교,관광지,경상남도 밀양시 밀양향교3길 19 (교동),35.50660573,128.7545381,055-359-5639,경상남도 밀양시청,화장실,정보없음,정보없음,정보없음,정보없음,정보없음,50,기타
밀양관아,관광지,경상남도 밀양시 중앙로348,35.49429512,128.754331,055-359-5639,경상남도 밀양시청,화장실,정보없음,정보없음,정보없음,정보없음,정보없음,50,기타
밀양영남루,관광지,경상남도 밀양시 중앙로324,35.49154522,128.755608,055-359-5639,경상남도 밀양시청,화장실,정보없음,정보없음,정보없음,정보없음,정보없음,50,기타
만어사,관광지,경상남도 밀양시 삼랑진읍 만어로776,35.454932,128.846222,055-359-5639,경상남도 밀양시청,화장실,정보없음,정보없음,정보없음,정보없음,정보없음,50,기타
표충사,관광지,경상남도 밀양시 단장면 표충로1338,35.532294,128.959045,055-359-5639,경상남도 밀양시청,화장실,정보없음,정보없음,정보없음,정보없음,정보없음,200,기타
내원사계곡(내원사),관광지,경상남도 양산시 하북면 내원로 207,35.44578536,129.1104508,055-374-6466,내원사,주차장+화장실+관광안내소,정보없음,정보없음,정보없음,정보없음,정보없음,300,자연
대운산자연휴양림,관광지,경상남도 양산시 탑골길 270,35.41784975,129.2088996,055-379-8670,양산시시설관리공단,주차장+화장실+관리사무소,정보없음,정보없음,정보없음,정보없음,정보없음,192,자연
법기수원지,관광지,경상남도 양산시 동면 법기로 198-13,35.34825271,129.1079758,055-392-5379,부산명장정수사업소,화장실+관리사무소,정보없음,정보없음,정보없음,정보없음,정보없음,110,기타
양산시립박물관,관광지,경상남도 양산시 북정로 78,35.35849531,129.0490358,055-392-3314,경상남도 양산시청,주차장+화장실,정보없음,정보없음,정보없음,정보없음,정보없음,82,문화
양산타워,관광지,경상남도 양산시 동면 강변로 264,35.32591877,129.0239276,055-367-9026,경상남도 양산시청,주차장+화장실,정보없음,정보없음,정보없음,정보없음,정보없음,70,자연
에덴밸리,관광지,경상남도 양산시 원동면 어실로 1206,35.42905699,128.9844664,055-379-8000,㈜에덴밸리리조트,주차장+화장실,정보없음,정보없음,정보없음,정보없음,정보없음,1400,기타
임경대,관광지,경상남도 양산시 원동면 원동로 285,35.32243455,128.9778074,055-392-3562,경상남도 양산시청,주차장+화장실+해설사의 집,정보없음,정보없음,정보없음,정보없음,정보없음,30,기타
통도사,관광지,경상남도 양산시 하북면 통도사로 108,35.47540912,129.0563672,055-382-7182,통도사,주차장+화장실+관광안내소,정보없음,정보없음,정보없음,정보없음,정보없음,1500,기타
최참판댁,관광지,경상남도 하동군 악양면 평사리길 66-7,35.15590905,127.688408,055-880-2821,경상남도 하동군청,화장실(4동)+주차장,정보없음,정보없음,정보없음,정보없음,정보없음,230,기타
화개장터,관광지,경상남도 하동군 화개면 쌍계로 15,35.18798946,127.6240666,055-880-2821,경상남도 하동군청,화장실(2동)+주차장,정보없음,정보없음,정보없음,정보없음,정보없음,300,기타
삼성궁,관광지,경상남도 하동군 청암면 삼성궁길 2,35.23870093,127.7054288,055-884-1279,배달성전 삼성궁,화장실(2동)+주차장,정보없음,정보없음,정보없음,정보없음,정보없음,100,기타
이병주문학관,관광지,경상남도 하동군 북천면 이명골길 14-28,35.09720238,127.8942256,055-880-2821,경상남도 하동군청,화장실(2동)+주차장,정보없음,정보없음,정보없음,정보없음,정보없음,40,문화
전쟁기념관,관광지,서울특별시 용산구 이태원로 29,37.53731405,126.9784661,02-709-3114,전쟁기념사업회,화장실+주차장+물품보관함+수유실,정보없음,정보없음,정보없음,정보없음,정보없음,150,문화
보강천 미루나무숲,관광지,,36.78834006,127.5810146,043-835-3482,충청북도 증평군청 축산산림과,관리사무소+화장실+주차장,정보없음,어린이 놀이체험기구+휴식쉼터,보강천생태공원+보강천 김득신도서관,정보없음,정보없음,50,자연
증평인삼문화센터,관광지,충청북도 증평군 증평읍 중부로 2451,36.79588146,127.5817602,043-835-3732,충청북도 증평군청 농업유통과,화장실+주차장,정보없음,정보없음,정보없음,충북인삼유통센터+상설판매장,정보없음,118,기타
기후변화체험관,관광지,인천광역시 부평구 장제로 267,37.50932668,126.7307645,032-509-3900,인천광역시 부평구청,수유실,정보없음,정보없음,생태교육체험,정보없음,정보없음,4,체험
부평역사박물관,관광지,인천광역시 부평구 굴포로 151,37.51214216,126.7379081,032-515-6471,인천광역시 부평구청,화장실,정보없음,정보없음,전시,카페,정보없음,31,문화
부평안전체험관,관광지,인천광역시 부평구 굴포로 110,37.51098789,126.7333177,032-509-3940,인천광역시 부평구청,화장실,정보없음,정보없음,안전교육체험,카페,정보없음,65,체험
인천나비공원,관광지,인천광역시 부평구 평천로 26-47,37.52026697,126.6927245,032-509-8824,인천광역시 부평구청,수유실,정보없음,정보없음,전시,카페,정보없음,24,산책/휴식
불정자연휴양림,관광지,경상북도 문경시 불정길 180,36.62128207,128.1365074,054-552-9443,문경관광진흥공단,관리사무소+화장실(동)+주차장(개소),정보없음,정보없음,정보없음,정보없음,정보없음,50,자연
간월도관광지,관광지,,36.60625263,126.4177537,041-660-2373,충청남도 서산시청 관광과,화장실+주차장,정보없음,정보없음,간월암,정보없음,정보없음,139,기타
서산류방택천문기상과학관,관광지,충청남도 서산시 인지면 무학로 1353-4,36.72735767,126.4131464,041-669-8496,서산시 문화시설사업소+류방택천문기상과학관관리소,사무실+화장실+주차장,정보없음,정보없음,정보없음,정보없음,정보없음,25,자연
서산버드랜드,관광지,충청남도 서산시 부석면 천수만로 655-73,36.62951253,126.378389,041-661-8054,서산시 버드랜드사업소,화장실(5동)+주차장+안내소(4개소),정보없음,정보없음,정보없음,정보없음,정보없음,200,자연
용현자연휴양림,관광지,충청남도 서산시 운산면 마애삼존불길 339,36.7518805,126.6076383,041-664-1971,국립자연휴양림관리소,관리사무소+화장실+주차장,정보없음,정보없음,정보없음,정보없음,정보없음,98,자연
해미읍성,관광지,충청남도 서산시 해미면 남문2로 143,36.71355717,126.5503842,041-660-3069,서산시 문화시설사업소+해미읍성관광안내소,사무실+화장실+주차장,정보없음,정보없음,정보없음,정보없음,정보없음,24000,기타
오월드,관광지,대전광역시 중구 사정공원로 70,36.28749807,127.3985061,042-580-4820,Y,Y,N,Y,Y,N,Y,1913,테마파크/놀이공원
뿌리공원,관광지,대전광역시 중구 뿌리공원로 79,36.28537962,127.3883,042-228-8310,Y,Y,N,Y,Y,N,Y,447,산책/휴식
엑스포과학공원,관광지,대전광역시 유성구 대덕대로 480,36.37662561,127.3871992,042-250-1111,Y,Y,N,Y,Y,N,Y,200,산책/휴식
한밭수목원,관광지,대전광역시 서구 둔산대로 169,36.36646857,127.3880154,042-270-8464,Y,Y,N,Y,Y,N,Y,465,플라워/가드닝
계족산황톳길,관광지,대전광역시 대덕구 장동로 59,36.40406651,127.4297932,042-623-9909,Y,Y,N,Y,Y,N,Y,25,자연
대청호반,관광지,대전광역시 대덕구 대청로 607,36.47362538,127.4735679,042-930-7240,Y,Y,N,Y,Y,N,Y,0,기타
장태산휴양림,관광지,대전광역시 서구 장안로 461,36.21596913,127.3412778,042-270-7883,Y,Y,N,Y,Y,N,Y,472,자연
소래포구,관광지,인천광역시 남동구 포구로 2-9(논현동),37.3988308,126.7403795,032-453-2140,인천광역시 남동구청,화장실,정보없음,정보없음,정보없음,정보없음,정보없음,0,기타
소래습지생태공원,관광지,인천광역시 남동구 소래로 154번길 77(논현동),37.40736572,126.7463366,032-453-2140,인천광역시 남동구청,화장실+주차장,정보없음,정보없음,정보없음,정보없음,정보없음,100,자연
소래철교,관광지,인천광역시 남동구 포구로 2-9(논현동),37.3988308,126.7403795,032-453-2140,인천광역시 남동구청,전기시설,정보없음,정보없음,정보없음,정보없음,정보없음,0,기타
장도포대지,관광지,,37.39790186,126.7382687,032-453-2140,인천광역시 남동구청,전기시설,정보없음,정보없음,정보없음,정보없음,정보없음,0,기타
소래역사관,관광지,인천광역시 남동구 아암대로 1605(논현동),37.39816347,126.7375992,032-453-2140,인천광역시 남동구청,화장실,정보없음,정보없음,정보없음,정보없음,정보없음,0,철도/교통 체험
산청전통한방휴양관광지,관광지,경상남도 산청군 금서면 동의보감로555번길 45-6,35.441066,127.829361,055-970-6633,경상남도 산청군청,공중화장실(12개소)+주차장(3개소),가족호텔,정보없음,산림휴양시설+주제관+박물관+약초관+사슴사육장+곰사육장,관광식당,정보없음,400,전통
서울 해병대사령부 초대교회,관광지,,37.54303445,126.982882,1577-9090,국방부,화장실+주차장,정보없음,정보없음,정보없음,정보없음,정보없음,10,기타
일제 경성호국신사 계단(108계단),관광지,서울특별시 용산구 신흥로22가길 33,37.546023,126.982542,02-2199-7240,서울특별시 용산구청 문화진흥과,승강기,정보없음,정보없음,정보없음,정보없음,정보없음,0,기타
찬바람재,관광지,서울특별시 용산구 녹사평대로 195,37.534815,126.987014,02-2199-7240,서울특별시 용산구청 문화진흥과,승강기,정보없음,정보없음,정보없음,정보없음,정보없음,0,기타
옛 남영동 대공분실(현 민주화운동기념관),관광지,서울특별시 용산구 한강대로71길 37,37.54101166,126.9716345,031-361-9576,민주화운동기념사업회,화장실,정보없음,정보없음,정보없음,정보없음,정보없음,0,문화
옛 용산공설시장(현 남영아케이드),관광지,서울특별시 용산구 한강대로84길 7,37.543723,126.972924,02-2199-7240,서울특별시 용산구청 문화진흥과,화장실,정보없음,정보없음,정보없음,정보없음,정보없음,0,자연
좌구산휴양랜드,관광지,충청북도 증평군 증평읍 솟점말길 107,36.70556821,127.6511216,043-835-4551,충청북도 증평군청 휴양랜드사업소,관리사무소+화장실+주차장,좌구산 휴양림+율리휴양촌+오토캠핑장,좌구산줄타기+사계절썰매장+MTB코스+가상증강현실 종합전시체험장+숲속모험시설,명상구름다리+좌구산 숲명상의 집+삼기생태공원+별천지공원+별천지숲인성학교+워터스퀘어,정보없음,정보없음,230,자연
좌구산 천문대,관광지,충청북도 증평군 증평읍 솟점말길 187,36.70370345,127.6530963,043-835-4573,충청북도 증평군청 휴양랜드사업소,관리사무소+화장실+주차장+야외화장실,정보없음,천체관측+천체투영실+Spacelab전시실+VR체험관,정보없음,정보없음,정보없음,22,자연
증평민속체험박물관,관광지,충청북도 증평군 증평읍 둔덕길 89,36.7638886,127.5955694,043-835-4152,충청북도 증평군청 문화관광과,휴게실+수유실+야외정자+흔들벤치+장애인화장실,정보없음,어린이체험전시+전통놀이체험+민속품체험+한옥체험+공예체험+농경문화체험,두레관+문화체험관+향토자료관+한옥체험장+공예체험장+대장간체험장,정보없음,정보없음,50,문화
문경 오미자테마터널,관광지,경상북도 문경시 마성면 문경대로 1356-1,36.65989315,128.1286031,054-554-5212,㈜오미원,관리사무소+화장실(동)+주차장(개소),정보없음,정보없음,정보없음,정보없음,정보없음,300,기타
"고모산성, 토끼비리",관광지,경상북도 문경시 마성면 고모산성길 60,36.66292256,128.1290151,054-550-6408,문경시청 문화예술과,관리사무소+화장실(동)+주차장(개소),정보없음,정보없음,정보없음,정보없음,정보없음,80,자연
문경짚라인,관광지,경상북도 문경시 불정길 174,36.62285644,128.1367824,054-553-1788,짚라인문경,관리사무소+화장실(동)+주차장(개소),정보없음,정보없음,정보없음,정보없음,정보없음,60,레저/스포츠
문경 종합온천,관광지,경상북도 문경시 문경읍 온천2길 24,36.72937376,128.1089547,054-571-2002,문경종합온천,관리사무소+화장실(동)+주차장(개소),정보없음,정보없음,정보없음,정보없음,정보없음,1000,온천/스파
문경 활공랜드,관광지,경상북도 문경시 문경읍 활공장길 80,36.7362239,128.1538507,054-571-4675,㈜문경활공랜드,관리사무소+화장실(동)+주차장(개소),정보없음,정보없음,정보없음,정보없음,정보없음,30,테마파크/놀이공원
통도환타지아,관광지,경상남도 양산시 하북면 통도7길 68,35.4999924,129.0831299,055-379-7000,㈜동일리조트,주차장+화장실,정보없음,정보없음,정보없음,정보없음,정보없음,2100,기타
홍룡폭포(홍룡사),관광지,경상남도 양산시 상북면 홍룡로 372,35.39699967,129.0864895,055-375-4177,홍룡사,주차장+화장실,정보없음,정보없음,정보없음,정보없음,정보없음,150,자연
황산공원,관광지,경상남도 양산시 물금읍 황산공원5길 13,35.30173083,128.9895949,055-392-2823,경상남도 양산시청,주차장+화장실+해설사의 집,정보없음,정보없음,정보없음,정보없음,정보없음,1000,자연
대천해수욕장,관광지,충청남도 보령시 머드로 123,36.31554012,126.5108563,041-930-6810,충청남도 보령시청 해수욕장경영과,화장실+샤워장+급수대+관광안내소+주차장+야영장,정보없음,정보없음,정보없음,정보없음,정보없음,3209,계절별 명소
무창포해수욕장,관광지,충청남도 보령시 웅천읍 열린바다1길 10,36.24457737,126.5365426,041-930-6802,충청남도 보령시청 해수욕장경영과,화장실+샤워장+급수대+관광안내소+주차장+야영장,정보없음,정보없음,정보없음,정보없음,정보없음,647,계절별 명소
가우도,관광지,전라남도 강진군 대구면 중저길 31-27,34.53639111,126.7910468,061-430-3344,전라남도 강진군청,낚시공원1+휴게시설1+식당2+쉼터2,밀물펜션+한옥펜션+노을민박+바닷가펜션+가우도펜션,정보없음,낚시공원1,정보없음,정보없음,100,기타
영랑생가,관광지,전라남도 강진군 강진읍 영랑생가길 15,34.64209922,126.7655711,061-430-3185,전라남도 강진군청,관리사무소,정보없음,정보없음,정보없음,정보없음,정보없음,50,역사
다산초당,관광지,전라남도 강진군 도암면 다산초당길 68-35,34.5807211,126.7449445,061-430-3911,전라남도 강진군청,관리사무소,정보없음,정보없음,정보없음,정보없음,정보없음,50,자연
고려청자박물관,관광지,전라남도 강진군 대구면 청자촌길 33,34.50866203,126.8008374,061-430-3755,전라남도 강진군청,관리사무소+화장실,정보없음,정보없음,정보없음,정보없음,정보없음,100,문화
백련사,관광지,전라남도 강진군 도암면 백련사길 145,34.58775658,126.747892,061-432-0837,전라남도 강진군청,관리사무소+화장실,정보없음,정보없음,정보없음,정보없음,정보없음,50,기타
진주성,관광지,경상남도 진주시 남강로 626(본성동),35.19043229,128.0802214,055-749-5171,경상남도 진주시청,진주성관리사업소+주차장+진주관광안내소+관광통역안내소+화장실,일반호텔,정보없음,사적지+박물관,정보없음,정보없음,37,기타
진양호,관광지,경상남도 진주시 남강로1번길 130(판문동),35.17660992,128.0362677,055-749-5933,경상남도 진주시청,주차장+관광안내도+화장실,일반호텔,소싸움경기장+동물원,댐+동물원+선착장,정보없음,정보없음,400,기타
경상남도 수목원,관광지,경상남도 진주시 이반성면 수목원로 386,35.15719862,128.2957346,055-254-3811,경상남도 산림환경연구원,주자창+안내소+화장실+사업소,정보없음,정보없음,식물원+동물원,정보없음,정보없음,304,플라워/가드닝
월아산 숲속의 진주,관광지,경상남도 진주시 진성면 달음산로 313,35.199915,128.1941257,055-760-3670,경상남도 진주시청,주자창+안내소+화장실+사무실,자연휴양림,산림레포츠단지,정원+숲,정보없음,정보없음,500,자연
진주 K-기업가정신센터,관광지,경상남도 진주시 지수면 지수로 482,35.23484495,128.2705103,055-749-7980,경상남도 진주시청,전시관+교육장+안내소+도서관+체험센터+사무실+화장실,승산에부자한옥+지수남명진취가,정보없음,전시관+카페,정보없음,정보없음,35,기타
물빛나루쉼터(김시민호),관광지,경상남도 진주시 망경로 195,35.18657405,128.0788814,055-761-3691,경상남도 진주시청,매표소+화장실,정보없음,정보없음,유람선,정보없음,정보없음,0,산책/휴식
일호광장진주역,관광지,경상남도 진주시 진주대로879번길 18(강남동),35.17816441,128.0893466,055-752-9877,경상남도 진주시청,상설전시실+기획전시실+사무실+화장실,정보없음,정보없음,전시관,정보없음,정보없음,47,기타
방동관광지,관광지,강원특별자치도 인제군 기린면 방동약수로 89-59,37.94387136,128.3962628,033-460-4312,강원특별자치도 인제군청,화장실+주차장,펜션+야영장,정보없음,조경휴게지+산림욕장,음식점,정보없음,250,기타
진주목공예전수관,관광지,경상남도 진주시 명석면 광제산로 367,35.24702277,128.0417914,055-746-3633,경상남도 진주시청,주차장+화장실,정보없음,정보없음,전시실+체험실,정보없음,정보없음,46,기타
진주시립이성자미술관,관광지,경상남도 진주시 에나로 128번길 14(충무공동),35.17580996,128.1427403,055-749-5898,경상남도 진주시청,"제1,2전시실+1층전시실+수유실+사무실+아트샵+교육실+화장실",정보없음,정보없음,전시관,정보없음,정보없음,9,문화
진주익룡발자국전시관,관광지,경상남도 진주시 영천강로68번길 22(충무공동),35.1686382,128.1396863,055-749-7401,경상남도 진주시청,전시실+보호각+교육영상관+사무실+휴게음식점+체험활동존+수유실+화장실,정보없음,정보없음,전시관,정보없음,정보없음,33,기타
진주청동기문화박물관,관광지,경상남도 진주시 대평면 호반로 1353,35.22437983,127.9619637,055-749-5172,경상남도 진주시청,주차장+화장실,정보없음,정보없음,바닥물놀이시설+카페,정보없음,정보없음,80,문화
진주남강유등전시관,관광지,경상남도 진주시 망경로 207,35.18180059,128.0772058,055-762-8583,경상남도 진주시청,상설전시실+기획전시실+사무실+체험활동존+수유실+화장실,정보없음,정보없음,전시관+카페,정보없음,정보없음,30,기타
벽계관광지,관광지,경상남도 의령군 궁류면 벽계로 201,35.42604967,128.2080942,055-570-2512,경상남도 의령군청,화장실+주차장+전기시설+통신시설+물놀이장+공연장,야영사이트(80면)+카라반(8동)+방갈로(9동),트램플린 3개소,힐링공원 1개소,정보없음,정보없음,90,기타
우수영관광지,관광지,전라남도 해남군 문내면 관광레저로 1,34.57257374,126.3101147,061-530-5541,전라남도 해남군청,전망대+화장실,유스호스텔,인조구장+명량해상케이블카+울돌목스카이워크,해전사기념전시관+명량대첩비,정보없음,주차장,500,기타
땅끝관광지,관광지,전라남도 해남군 송지면 땅끝마을길 100,34.29471348,126.5250233,061-530-5544,전라남도 해남군청,전망대+화장실,황토나라테마촌,땅끝모노레일+놀이터,오토캠핑장+땅끝해양자연사박물관+전망대,정보없음,주차장,800,기타
오색관광지,관광지,,38.077061,128.5128997,033-670-2724,강원특별자치도 양양군청,관리사무소+주차장+하수도시설+도로+취사장+공중화장실,가족호텔+콘도미니엄+모텔+산장+방가로+팬션,수영장+클럽하우스+골프연습장,야영장+조경휴게소,정보없음,정보없음,1000,기타
지경관광지,관광지,,37.927413,128.794861,033-670-2724,강원특별자치도 양양군청,주차장,호텔+생활형숙박시설,농촌체험장,수동골센타+캠핑장및 카라반,정보없음,정보없음,1500,기타
설해원(양양국제공항),관광단지,,38.055556,128.664198,033-670-2724,강원특별자치도 양양군청,주차장+경비실+직원숙소,관광호텔+휴양콘도미니엄+생활형숙박시설,골프장+체육관,박물관+힐링가든+미술관,정보없음,정보없음,2500,기타
오수의견관광지,관광지,전북특별자치도 임실군 오수면 충효로 2096-16,35.54520338,127.3326779,063-640-4671,전북특별자치도 임실군청,화장실(1동)+주차장,정보없음,정보없음,정보없음,정보없음,정보없음,200,기타
사선대관광지,관광지,전북특별자치도 임실군 관촌면 사선2길 68-7,35.672357,127.2746265,063-640-2921,전북특별자치도 임실군청,관리사무소+화장실(4동)+주차장,정보없음,정보없음,정보없음,정보없음,정보없음,251,기타
해운대해수욕장,관광지,부산광역시 해운대구 해운대해변로 264,35.15910698,129.1602838,051-749-4081,부산광역시 해운대구청,도로+광장+공중화장실 4동+주차장 1개소+관리사무소 1동+변전실 1동,정보없음,정보없음,해저  테마수족관,정보없음,정보없음,203,계절별 명소
달맞이동산지구,관광지,부산광역시 해운대구 달맞이길 190,35.15768146,129.1825429,051-749-4081,부산광역시 해운대구청,공중화장실 2동+관리사무소 1동+광장+도로+주차장,정보없음,정보없음,망월정 1동,정보없음,정보없음,76,자연
변산해수욕장,관광지,전북특별자치도 부안군 변산면 변산로 2086,35.67999179,126.5309105,063-580-4739,전북특별자치도 부안군,관리사무소+화장실+주차장,민박+펜션 등,정보없음,정보없음,정보없음,정보없음,688,자연
위도해수욕장,관광지,전북특별자치도 부안군 위도면 위도로 366,35.60583098,126.2853294,063-583-3804,전북특별자치도 부안군,관리사무소+화장실+주차장,민박+펜션 등,정보없음,정보없음,정보없음,정보없음,100,계절별 명소
모항해수욕장,관광지,전북특별자치도 부안군 변산면 모항길 23-1,35.5831428,126.5082098,063-580-4738,전북특별자치도 부안군,관리사무소+화장실+주차장,모항해나루가족호텔,정보없음,정보없음,정보없음,정보없음,300,계절별 명소
합천호회양관광단지,관광지,,35.524398,128.016537,055-930-3753,경상남도 합천군청,주차장+화장실,정보없음,정보없음,정보없음,정보없음,정보없음,100,기타
심우장,관광지,서울특별시 성북구 성북로29길 24,37.5936268,126.9916662,02-741-4693,서울특별시 성북구청 문화체육과,화장실,정보없음,정보없음,정보없음,정보없음,정보없음,0,기타
길상사,관광지,서울특별시 성북구 선잠로5길 68(성북동),37.59910942,126.9946522,02-3672-5945,길상사,화장실,정보없음,정보없음,정보없음,정보없음,정보없음,50,기타
한국가구박물관,관광지,서울특별시 성북구 대사관로121,37.60037831,126.9934492,02-745-0181,한국가구박물관,화장실+라운지,정보없음,정보없음,정보없음,정보없음,정보없음,35,문화
창녕 남지 개비리,관광지,,35.3945598,128.4405466,055-530-1523,경상남도 창녕군청,화장실,정보없음,정보없음,정보없음,정보없음,정보없음,150,기타
산토끼노래동산,관광지,경상남도 창녕군 이방면 이방로 623,35.57772326,128.38358,055-530-1534,경상남도 창녕군청,안내소(매표소)+주차장+화장실,정보없음,롤링미끄럼틀+레일썰매장+어린이놀이터,작은동물원+토끼먹이체험장,정보없음,정보없음,195,자연
창녕 영산 만년교,관광지,,35.45282939,128.5283272,055-530-1471,경상남도 창녕군청,화장실,정보없음,정보없음,정보없음,정보없음,정보없음,20,자연
서울 한양도성(서울성곽),관광지,,37.551483,126.9853756,02-2133-2658,서울문화재청,화장실+주차장,정보없음,정보없음,정보없음,정보없음,정보없음,0,역사
후암동 조선은행 사택지,관광지,서울특별시 용산구 후암로16가길 7,37.547716,126.9786783,02-759-4114,한국은행,지하주차장,정보없음,정보없음,정보없음,정보없음,정보없음,0,기타
주남저수지,관광지,경상남도 창원시 의창구 동읍 주남로 101번길 26,35.30732964,128.6779306,055-225-2798,경상남도 창원시청,관리사무소+화장실+주차장+전망대+생태학습관+람사르문화관,정보없음,정보없음,정보없음,정보없음,정보없음,44,기타
마금산온천,관광지,경상남도 창원시 의창구 북면 천주로 1167,35.35464845,128.6094168,055-225-3641,경상남도 창원시청,화장실+주차장+족욕장+쉼터,정보없음,정보없음,정보없음,정보없음,정보없음,910,자연
창원과학체험관,관광지,경상남도 창원시 성산구 충혼로 72번길 16,35.230268,128.6617774,055-267-2676,경상남도 창원시청,화장실+주차장,정보없음,정보없음,정보없음,정보없음,정보없음,99,체험
마산해양레포츠센터,관광지,경상남도 창원시 마산합포구 제2부두로 56,35.19529973,128.5738199,055-712-0454,창원시설관리공단,강의실+탈의실+화장실,정보없음,정보없음,정보없음,정보없음,정보없음,0,자연
웅천도요지전시관,관광지,경상남도 창원시 진해구 두동도요로 198,35.12738997,128.8155983,055-225-6859,경상남도 창원시청,화장실+주차장+체험공방,정보없음,정보없음,정보없음,정보없음,정보없음,30,기타
장계관광지,관광지,충청북도 옥천군 안내면 장계1길 57,36.37753534,127.6350074,043-730-3732,충청북도 옥천군청,향토전시관(관리실)+화장실(3동)+주차장,없음,없음,문화 및 집회시설,없음,없음,250,기타
금정산,관광지,부산광역시 금정구 범어사로 250,35.28304264,129.0676208,051-519-4081,부산광역시 금정구 문화관광과,케이블카+범어사 주차장,정보없음,정보없음,정보없음,정보없음,정보없음,100,자연
범어사,관광지,부산광역시 금정구 범어사로 250,35.28304308,129.0676212,051-519-4081,부산광역시 금정구 문화관광과,화장실+주차장+명상공간+체육시설,정보없음,정보없음,정보없음,정보없음,정보없음,100,기타
곡성 섬진강 기차마을,관광지,전라남도 곡성군 오곡면 기차마을로 232,35.27753157,127.3082867,061-362-7461,전라남도 곡성군청 관광과,주차장+화장실+장애인 공용화장실+모유수유실,정보없음,정보없음,정보없음,정보없음,정보없음,210,전통
기차마을 장미공원,관광지,전라남도 곡성군 오곡면 기차마을로 232,35.27753157,127.3082867,061-360-8443,전라남도 곡성군청 관광과,주차장+화장실+장애인 공용화장실+모유수유실,정보없음,정보없음,정보없음,정보없음,정보없음,210,전통
섬진강 침실습지,관광지,전라남도 곡성군 고달면 고달길 192-6,35.27503038,127.3335915,061-360-8512,전라남도 곡성군청 환경축산과,주차장+화장실,정보없음,정보없음,정보없음,정보없음,정보없음,12,기타
곡성아트빌리지,관광지,전라남도 곡성군 오곡면 섬진강로 1455,35.23004949,127.3677915,061-362-5559,전라남도 곡성군청 관광과,주차장+ 무선 인터넷+ 화장실+장애인 편의시설,정보없음,정보없음,정보없음,정보없음,정보없음,210,기타
합천박물관,관광지,경상남도 합천군 쌍책면 황강옥전로 1558,35.58042271,128.2829423,055-930-4883,경상남도 합천군청,관광안내소+주차장+화장실,정보없음,정보없음,정보없음,정보없음,정보없음,77,문화
황매산군립공원,관광지,경상남도 합천군 가회면 황매산공원길 4,35.48184913,128.0037495,055-930-4754,경상남도 합천군청,주차장+화장실,정보없음,정보없음,정보없음,정보없음,정보없음,1200,자연
영상테마파크&청와대세트장,관광지,경상남도 합천군 용주면 합천호수로 757,35.54877253,128.0728984,055-930-8623,경상남도 합천군청,관광안내소+주차장+화장실,정보없음,정보없음,정보없음,정보없음,정보없음,500,테마파크/놀이공원
황계폭포,관광지,경상남도 합천군 용주면 황계2길 30,35.51135706,128.071173,055-930-4663,경상남도 합천군청,화장실,정보없음,정보없음,정보없음,정보없음,정보없음,40,자연
정양레포츠공원,관광지,경상남도 합천군 대양면 동부로 39-13,35.55690191,128.1668052,055-930-4663,경상남도 합천군청,주차장+화장실,정보없음,정보없음,정보없음,정보없음,정보없음,150,산책/휴식
정양늪생태공원,관광지,경상남도 합천군 대양면 대야로 730,35.55322772,128.162786,055-930-3343,경상남도 합천군청,주차장+화장실,정보없음,정보없음,정보없음,정보없음,정보없음,30,자연
해인사 소리길,관광지,경상남도 합천군 가야면 가야산로 1160,35.76749785,128.1365362,055-930-8000,경상남도 합천군청,주차장+화장실,정보없음,정보없음,정보없음,정보없음,정보없음,200,기타
신소양체육공원,관광지,,35.580901,128.170251,055-930-3544,경상남도 합천군청,주차장+화장실,정보없음,정보없음,정보없음,정보없음,정보없음,400,산책/휴식
삽교호관광지,관광지,충청남도 당진시 신평면 삽교천3길 100,36.88890544,126.8247541,041-350-3601,충청남도 당진시청,공중화장실+테마과학관+근린공원,정보없음,정보없음,정보없음,정보없음,정보없음,728,기타
왜목마을관광지,관광지,충청남도 당진시 석문면 왜목길 15-5,37.04493276,126.5246154,041-350-3601,충청남도 당진시청,공중화장실+공연장+전망대,정보없음,정보없음,정보없음,정보없음,정보없음,150,전통
김포평화누리길 1코스,관광지,,37.6535376,126.5533799,031-980-5108,경기도 김포시청,대곶면행정복지센터,"약암홍염천 관광호텔, 덕포진 누리마을 캠핑장",정보없음,"김포 함상공원, 덕포진",정보없음,김포시 관광안내소,0,기타
김포평화누리길 2코스,관광지,,37.73869766,126.5484911,031-980-5108,경기도 김포시청,월곶면행정복지센터,조강276(평화의 길 거점센터),정보없음,"문수산성, 애기봉 평화 생태공원",정보없음,정보없음,0,기타
김포평화누리길 3코스,관광지,,37.70077831,126.6622045,031-980-5108,경기도 김포시청,하성면행정복지센터,정보없음,정보없음,전류리 포구,정보없음,정보없음,0,기타
김포 장릉,관광지,경기도 김포시 장릉로 79(풍무동),37.6107519,126.7126583,031-984-2897,문화재청 장릉관리소,"풍무동 주민센터,풍무동 홈플러스",장기동 아리수호텔,정보없음,정보없음,정보없음,정보없음,70,기타
애기봉 평화생태공원,관광지,경기도 김포시 월곶면 평화공원로 289,37.75316598,126.5942484,031-989-6034,김포문화재단,월곶면사무소,"김포캠핑파크, 조강276(평화의 길 거점센터)",정보없음,"월곶생활문화센터, 김포 평화문화관, 김포국제조각공원",정보없음,정보없음,56,자연
문수산성,관광지,,37.7429948,126.5467533,031-980-2483,경기도 김포시청,월곶면사무소,"문수산 관광 농원 펜션, 문수골힐링캠핑장,문수관광농원, 조강276(평화의 길 거점센터)",정보없음,문수산삼림욕장,정보없음,정보없음,0,자연
